[{"name":"Auburn","state":"Alabama","url":"/eclipse/in/usa/auburn-al","img_url":"//c.tadst.com/scripts/eclipsegfx.php?v=2&t=1&w=120&h=120&sr=0.263535&mr=0.271856&mx=0.001951&my=-0.046049&hz=66.726609","_geoloc":{"lat":32.6098566,"lng":-85.4807824}},{"name":"Birmingham","state":"Alabama","url":"/eclipse/in/usa/birmingham","img_url":"//c.tadst.com/scripts/eclipsegfx.php?v=2&t=1&w=120&h=120&sr=0.263535&mr=0.271870&mx=-0.002005&my=-0.042127&hz=66.900925","_geoloc":{"lat":33.5206824,"lng":-86.8024325}},{"name":"Brewton","state":"Alabama","url":"/eclipse/in/usa/brewton","img_url":"//c.tadst.com/scripts/eclipsegfx.php?v=2&t=1&w=120&h=120&sr=0.263535&mr=0.271928&mx=0.001074&my=-0.077647&hz=68.850830","_geoloc":{"lat":31.0478735,"lng":-87.0639633}},{"name":"Daphne","state":"Alabama","url":"/eclipse/in/usa/daphne","img_url":"//c.tadst.com/scripts/eclipsegfx.php?v=2&t=1&w=120&h=120&sr=0.263535&mr=0.271957&mx=-0.001437&my=-0.090340&hz=69.751633","_geoloc":{"lat":30.6035255,"lng":-87.9036046}},{"name":"Dothan","state":"Alabama","url":"/eclipse/in/usa/dothan","img_url":"//c.tadst.com/scripts/eclipsegfx.php?v=2&t=1&w=120&h=120&sr=0.263535&mr=0.271880&mx=0.005944&my=-0.064315&hz=67.561220","_geoloc":{"lat":31.2232313,"lng":-85.3904888}},{"name":"Florence","state":"Alabama","url":"/eclipse/in/usa/florence-al","img_url":"//c.tadst.com/scripts/eclipsegfx.php?v=2&t=1&w=120&h=120&sr=0.263535&mr=0.271857&mx=-0.003464&my=-0.029769&hz=66.322505","_geoloc":{"lat":34.79981,"lng":-87.6772509}},{"name":"Huntsville","state":"Alabama","url":"/eclipse/in/usa/huntsville","img_url":"//c.tadst.com/scripts/eclipsegfx.php?v=2&t=1&w=120&h=120&sr=0.263535&mr=0.271836&mx=-0.001691&my=-0.024042&hz=65.842785","_geoloc":{"lat":34.729847,"lng":-86.585901}},{"name":"Luverne","state":"Alabama","url":"/eclipse/in/usa/luverne","img_url":"//c.tadst.com/scripts/eclipsegfx.php?v=2&t=1&w=120&h=120&sr=0.263535&mr=0.271895&mx=0.002272&my=-0.063627&hz=67.877774","_geoloc":{"lat":31.7165455,"lng":-86.2638491}},{"name":"Mobile","state":"Alabama","url":"/eclipse/in/usa/mobile","img_url":"//c.tadst.com/scripts/eclipsegfx.php?v=2&t=1&w=120&h=120&sr=0.263535&mr=0.271959&mx=-0.002291&my=-0.089978&hz=69.774703","_geoloc":{"lat":30.6943566,"lng":-88.043054}},{"name":"Montgomery","state":"Alabama","url":"/eclipse/in/usa/montgomery","img_url":"//c.tadst.com/scripts/eclipsegfx.php?v=2&t=1&w=120&h=120&sr=0.263535&mr=0.271883&mx=0.000684&my=-0.054876&hz=67.447863","_geoloc":{"lat":32.3669656,"lng":-86.3006484}},{"name":"Phenix City","state":"Alabama","url":"/eclipse/in/usa/phenix-city","img_url":"//c.tadst.com/scripts/eclipsegfx.php?v=2&t=1&w=120&h=120&sr=0.263535&mr=0.271846&mx=0.003232&my=-0.044658&hz=66.479837","_geoloc":{"lat":32.4709761,"lng":-85.0007652}},{"name":"Roanoke","state":"Alabama","url":"/eclipse/in/usa/al-roanoke","img_url":"//c.tadst.com/scripts/eclipsegfx.php?v=2&t=1&w=120&h=120&sr=0.263535&mr=0.271842&mx=0.001171&my=-0.037929&hz=66.282895","_geoloc":{"lat":33.1512313,"lng":-85.3721708}},{"name":"Talladega","state":"Alabama","url":"/eclipse/in/usa/talladega","img_url":"//c.tadst.com/scripts/eclipsegfx.php?v=2&t=1&w=120&h=120&sr=0.263535&mr=0.271855&mx=-0.000340&my=-0.038821&hz=66.553495","_geoloc":{"lat":33.4359416,"lng":-86.1058047}},{"name":"Tuscaloosa","state":"Alabama","url":"/eclipse/in/usa/tuscaloosa","img_url":"//c.tadst.com/scripts/eclipsegfx.php?v=2&t=1&w=120&h=120&sr=0.263535&mr=0.271894&mx=-0.003866&my=-0.051324&hz=67.565246","_geoloc":{"lat":33.2668398,"lng":-87.4862181}},{"name":"Tuskegee","state":"Alabama","url":"/eclipse/in/usa/tuskegee","img_url":"//c.tadst.com/scripts/eclipsegfx.php?v=2&t=1&w=120&h=120&sr=0.263535&mr=0.271866&mx=0.002060&my=-0.050025&hz=67.008246","_geoloc":{"lat":32.4240286,"lng":-85.6916194}},{"name":"Adak","state":"Alaska","url":"/eclipse/in/usa/adak","img_url":"//c.tadst.com/scripts/eclipsegfx.php?v=2&t=1&w=120&h=120&sr=0.263&mr=0.252&su=0.674&sp=1.200&mx=-1.262&my=-0.151&hz=0.505","_geoloc":{"lat":51.8649607,"lng":-176.6409195}},{"name":"Anchorage","state":"Alaska","url":"/eclipse/in/usa/anchorage","img_url":"//c.tadst.com/scripts/eclipsegfx.php?v=2&t=1&w=120&h=120&sr=0.263526&mr=0.269246&mx=0.160277&my=0.177774&hz=19.794763","_geoloc":{"lat":61.2163129,"lng":-149.8948522}},{"name":"Arctic Village","state":"Alaska","url":"/eclipse/in/usa/arctic-village","img_url":"//c.tadst.com/scripts/eclipsegfx.php?v=2&t=1&w=120&h=120&sr=0.263526&mr=0.269306&mx=0.180956&my=0.259555&hz=20.932480","_geoloc":{"lat":68.131697,"lng":-145.495067}},{"name":"Atqasuk","state":"Alaska","url":"/eclipse/in/usa/atqasuk","img_url":"//c.tadst.com/scripts/eclipsegfx.php?v=2&t=1&w=120&h=120&sr=0.263525&mr=0.268949&mx=0.190385&my=0.291797&hz=16.351978","_geoloc":{"lat":70.4692922,"lng":-157.399322}},{"name":"Barrow","state":"Alaska","url":"/eclipse/in/usa/barrow","img_url":"//c.tadst.com/scripts/eclipsegfx.php?v=2&t=1&w=120&h=120&sr=0.263526&mr=0.268960&mx=0.190198&my=0.300830&hz=16.529164","_geoloc":{"lat":71.3864521,"lng":-156.4821311}},{"name":"Bethel","state":"Alaska","url":"/eclipse/in/usa/bethel","img_url":"//c.tadst.com/scripts/eclipsegfx.php?v=2&t=1&w=120&h=120&sr=0.263524&mr=0.268780&mx=0.167367&my=0.184607&hz=13.734712","_geoloc":{"lat":60.7922222,"lng":-161.7558332}},{"name":"Chevak","state":"Alaska","url":"/eclipse/in/usa/chevak","img_url":"//c.tadst.com/scripts/eclipsegfx.php?v=2&t=1&w=120&h=120&sr=0.263524&mr=0.268641&mx=0.173648&my=0.197869&hz=12.006584","_geoloc":{"lat":61.5277778,"lng":-165.5863888}},{"name":"Fairbanks","state":"Alaska","url":"/eclipse/in/usa/fairbanks","img_url":"//c.tadst.com/scripts/eclipsegfx.php?v=2&t=1&w=120&h=120&sr=0.263526&mr=0.269292&mx=0.174145&my=0.220185&hz=20.578549","_geoloc":{"lat":64.837845,"lng":-147.7166749}},{"name":"Glennallen","state":"Alaska","url":"/eclipse/in/usa/glennallen","img_url":"//c.tadst.com/scripts/eclipsegfx.php?v=2&t=1&w=120&h=120&sr=0.263526&mr=0.269402&mx=0.161771&my=0.186546&hz=21.920964","_geoloc":{"lat":62.1371485,"lng":-145.8219139}},{"name":"Haines","state":"Alaska","url":"/eclipse/in/usa/haines","img_url":"//c.tadst.com/scripts/eclipsegfx.php?v=2&t=1&w=120&h=120&sr=0.263527&mr=0.269830&mx=0.139706&my=0.151295&hz=27.681724","_geoloc":{"lat":59.0831232,"lng":-135.3430572}},{"name":"Juneau","state":"Alaska","url":"/eclipse/in/usa/juneau","img_url":"//c.tadst.com/scripts/eclipsegfx.php?v=2&t=1&w=120&h=120&sr=0.263527&mr=0.269890&mx=0.133226&my=0.140286&hz=28.499681","_geoloc":{"lat":58.3019496,"lng":-134.4197339}},{"name":"Kaktovik","state":"Alaska","url":"/eclipse/in/usa/kaktovik","img_url":"//c.tadst.com/scripts/eclipsegfx.php?v=2&t=1&w=120&h=120&sr=0.263526&mr=0.269313&mx=0.182271&my=0.283611&hz=21.126676","_geoloc":{"lat":70.1263327,"lng":-143.613402}},{"name":"Kenai","state":"Alaska","url":"/eclipse/in/usa/kenai","img_url":"//c.tadst.com/scripts/eclipsegfx.php?v=2&t=1&w=120&h=120&sr=0.263525&mr=0.269195&mx=0.157960&my=0.171336&hz=19.092239","_geoloc":{"lat":60.5544444,"lng":-151.2583332}},{"name":"Ketchikan","state":"Alaska","url":"/eclipse/in/usa/ketchikan","img_url":"//c.tadst.com/scripts/eclipsegfx.php?v=2&t=1&w=120&h=120&sr=0.263528&mr=0.270069&mx=0.110459&my=0.106282&hz=30.940754","_geoloc":{"lat":55.3430696,"lng":-131.6466818}},{"name":"Kodiak","state":"Alaska","url":"/eclipse/in/usa/kodiak","img_url":"//c.tadst.com/scripts/eclipsegfx.php?v=2&t=1&w=120&h=120&sr=0.263525&mr=0.269147&mx=0.142624&my=0.140400&hz=18.341900","_geoloc":{"lat":57.79,"lng":-152.4072221}},{"name":"Kotzebue","state":"Alaska","url":"/eclipse/in/usa/kotzebue","img_url":"//c.tadst.com/scripts/eclipsegfx.php?v=2&t=1&w=120&h=120&sr=0.263525&mr=0.268801&mx=0.188358&my=0.254966&hz=14.274568","_geoloc":{"lat":66.8982057,"lng":-162.597762}},{"name":"Metlakatla","state":"Alaska","url":"/eclipse/in/usa/metlakatla","img_url":"//c.tadst.com/scripts/eclipsegfx.php?v=2&t=1&w=120&h=120&sr=0.263528&mr=0.270079&mx=0.108658&my=0.103595&hz=31.072931","_geoloc":{"lat":55.119358,"lng":-131.5747416}},{"name":"Noatak","state":"Alaska","url":"/eclipse/in/usa/noatak","img_url":"//c.tadst.com/scripts/eclipsegfx.php?v=2&t=1&w=120&h=120&sr=0.263525&mr=0.268793&mx=0.189659&my=0.263069&hz=14.203893","_geoloc":{"lat":68.0223548,"lng":-159.2766595}},{"name":"Nome","state":"Alaska","url":"/eclipse/in/usa/nome","img_url":"//c.tadst.com/scripts/eclipsegfx.php?v=2&t=1&w=120&h=120&sr=0.263524&mr=0.268688&mx=0.183989&my=0.231052&hz=12.727724","_geoloc":{"lat":64.4989922,"lng":-165.3987993}},{"name":"Nuiqsut","state":"Alaska","url":"/eclipse/in/usa/nuiqsut","img_url":"//c.tadst.com/scripts/eclipsegfx.php?v=2&t=1&w=120&h=120&sr=0.263526&mr=0.269122&mx=0.186726&my=0.285836&hz=18.586038","_geoloc":{"lat":70.2184286,"lng":-150.9914246}},{"name":"Point Hope","state":"Alaska","url":"/eclipse/in/usa/point-hope","img_url":"//c.tadst.com/scripts/eclipsegfx.php?v=2&t=1&w=120&h=120&sr=0.263525&mr=0.268685&mx=0.192695&my=0.275657&hz=12.868122","_geoloc":{"lat":68.3498679,"lng":-166.7526089}},{"name":"Point Lay","state":"Alaska","url":"/eclipse/in/usa/point-lay","img_url":"//c.tadst.com/scripts/eclipsegfx.php?v=2&t=1&w=120&h=120&sr=0.263525&mr=0.268799&mx=0.192459&my=0.287543&hz=14.388622","_geoloc":{"lat":69.7552726,"lng":-163.0523126}},{"name":"Prudhoe Bay","state":"Alaska","url":"/eclipse/in/usa/prudhoe-bay","img_url":"//c.tadst.com/scripts/eclipsegfx.php?v=2&t=1&w=120&h=120&sr=0.263526&mr=0.269190&mx=0.185277&my=0.285542&hz=19.489946","_geoloc":{"lat":70.2450108,"lng":-148.3978376}},{"name":"Sitka","state":"Alaska","url":"/eclipse/in/usa/sitka","img_url":"//c.tadst.com/scripts/eclipsegfx.php?v=2&t=1&w=120&h=120&sr=0.263527&mr=0.269881&mx=0.125236&my=0.125102&hz=28.303352","_geoloc":{"lat":57.0524973,"lng":-135.3376123}},{"name":"Talkeetna","state":"Alaska","url":"/eclipse/in/usa/talkeetna","img_url":"//c.tadst.com/scripts/eclipsegfx.php?v=2&t=1&w=120&h=120&sr=0.263526&mr=0.269231&mx=0.165752&my=0.191355&hz=19.655194","_geoloc":{"lat":62.267644,"lng":-150.0295287}},{"name":"Unalaska","state":"Alaska","url":"/eclipse/in/usa/unalaska","img_url":"//c.tadst.com/scripts/eclipsegfx.php?v=2&t=1&w=120&h=120&sr=0.263523&mr=0.268455&mx=0.129906&my=0.116935&hz=9.353649","_geoloc":{"lat":53.8722824,"lng":-166.5272261}},{"name":"Valdez","state":"Alaska","url":"/eclipse/in/usa/valdez","img_url":"//c.tadst.com/scripts/eclipsegfx.php?v=2&t=1&w=120&h=120&sr=0.263526&mr=0.269382&mx=0.157631&my=0.175070&hz=21.601190","_geoloc":{"lat":61.1299396,"lng":-146.3493637}},{"name":"Wainwright","state":"Alaska","url":"/eclipse/in/usa/wainwright","img_url":"//c.tadst.com/scripts/eclipsegfx.php?v=2&t=1&w=120&h=120&sr=0.263525&mr=0.268880&mx=0.191419&my=0.295466&hz=15.462948","_geoloc":{"lat":70.6369444,"lng":-160.0383332}},{"name":"Yakutat","state":"Alaska","url":"/eclipse/in/usa/yakutat","img_url":"//c.tadst.com/scripts/eclipsegfx.php?v=2&t=1&w=120&h=120&sr=0.263527&mr=0.269659&mx=0.144215&my=0.154672&hz=25.304118","_geoloc":{"lat":59.5727345,"lng":-139.5783123}},{"name":"Buckeye","state":"Arizona","url":"/eclipse/in/usa/buckeye","img_url":"//c.tadst.com/scripts/eclipsegfx.php?v=2&t=1&w=120&h=120&sr=0.263532&mr=0.271528&mx=-0.154263&my=-0.068728&hz=55.612587","_geoloc":{"lat":33.3702748,"lng":-112.5838672}},{"name":"Bullhead City","state":"Arizona","url":"/eclipse/in/usa/bullhead-city","img_url":"//c.tadst.com/scripts/eclipsegfx.php?v=2&t=1&w=120&h=120&sr=0.263531&mr=0.271386&mx=-0.131121&my=-0.061577&hz=52.542904","_geoloc":{"lat":35.1477774,"lng":-114.5682982}},{"name":"Chandler","state":"Arizona","url":"/eclipse/in/usa/chandler","img_url":"//c.tadst.com/scripts/eclipsegfx.php?v=2&t=1&w=120&h=120&sr=0.263532&mr=0.271565&mx=-0.152806&my=-0.069716&hz=56.470421","_geoloc":{"lat":33.3067132,"lng":-111.8408488}},{"name":"Chinle","state":"Arizona","url":"/eclipse/in/usa/chinle","img_url":"//c.tadst.com/scripts/eclipsegfx.php?v=2&t=1&w=120&h=120&sr=0.263532&mr=0.271583&mx=-0.098234&my=-0.059489&hz=57.044321","_geoloc":{"lat":36.1501434,"lng":-109.5670684}},{"name":"Flagstaff","state":"Arizona","url":"/eclipse/in/usa/flagstaff","img_url":"//c.tadst.com/scripts/eclipsegfx.php?v=2&t=1&w=120&h=120&sr=0.263532&mr=0.271523&mx=-0.120781&my=-0.063206&hz=55.583158","_geoloc":{"lat":35.199458,"lng":-111.6514258}},{"name":"Glendale","state":"Arizona","url":"/eclipse/in/usa/glendale-az","img_url":"//c.tadst.com/scripts/eclipsegfx.php?v=2&t=1&w=120&h=120&sr=0.263532&mr=0.271543&mx=-0.150043&my=-0.068727&hz=55.961930","_geoloc":{"lat":33.5389854,"lng":-112.1858156}},{"name":"Goodyear","state":"Arizona","url":"/eclipse/in/usa/goodyear","img_url":"//c.tadst.com/scripts/eclipsegfx.php?v=2&t=1&w=120&h=120&sr=0.263532&mr=0.271538&mx=-0.152437&my=-0.068739&hz=55.838822","_geoloc":{"lat":33.4001695,"lng":-112.4572234}},{"name":"Jeddito","state":"Arizona","url":"/eclipse/in/usa/jeddito","img_url":"//c.tadst.com/scripts/eclipsegfx.php?v=2&t=1&w=120&h=120&sr=0.263532&mr=0.271571&mx=-0.106299&my=-0.061363&hz=56.740212","_geoloc":{"lat":35.768984,"lng":-110.1283045}},{"name":"Kykotsmovi Village, Hopi","state":"Arizona","url":"/eclipse/in/usa/kykotsmovi-village-hopi","img_url":"//c.tadst.com/scripts/eclipsegfx.php?v=2&t=1&w=120&h=120&sr=0.263532&mr=0.271548&mx=-0.106412&my=-0.060576&hz=56.203013","_geoloc":{"lat":35.8496945,"lng":-110.6259374}},{"name":"Mesa","state":"Arizona","url":"/eclipse/in/usa/mesa","img_url":"//c.tadst.com/scripts/eclipsegfx.php?v=2&t=1&w=120&h=120&sr=0.263532&mr=0.271563&mx=-0.150911&my=-0.069454&hz=56.419564","_geoloc":{"lat":33.436188,"lng":-111.5860661}},{"name":"Moenkopi","state":"Arizona","url":"/eclipse/in/usa/moenkopi","img_url":"//c.tadst.com/scripts/eclipsegfx.php?v=2&t=1&w=120&h=120&sr=0.263532&mr=0.271516&mx=-0.104808&my=-0.058973&hz=55.467213","_geoloc":{"lat":36.11259,"lng":-111.2225918}},{"name":"Mohave Valley","state":"Arizona","url":"/eclipse/in/usa/mohave-valley","img_url":"//c.tadst.com/scripts/eclipsegfx.php?v=2&t=1&w=120&h=120&sr=0.263531&mr=0.271391&mx=-0.134100&my=-0.061984&hz=52.643016","_geoloc":{"lat":35.0527235,"lng":-114.5716529}},{"name":"Page","state":"Arizona","url":"/eclipse/in/usa/page","img_url":"//c.tadst.com/scripts/eclipsegfx.php?v=2&t=1&w=120&h=120&sr=0.263532&mr=0.271482&mx=-0.092968&my=-0.054611&hz=54.742099","_geoloc":{"lat":36.9148305,"lng":-111.4572941}},{"name":"Payson","state":"Arizona","url":"/eclipse/in/usa/payson","img_url":"//c.tadst.com/scripts/eclipsegfx.php?v=2&t=1&w=120&h=120&sr=0.263532&mr=0.271564&mx=-0.135348&my=-0.067545&hz=56.485422","_geoloc":{"lat":34.2308684,"lng":-111.3251354}},{"name":"Phoenix","state":"Arizona","url":"/eclipse/in/usa/phoenix","img_url":"//c.tadst.com/scripts/eclipsegfx.php?v=2&t=1&w=120&h=120&sr=0.263532&mr=0.271551&mx=-0.151212&my=-0.069056&hz=56.136014","_geoloc":{"lat":33.4485866,"lng":-112.0773455}},{"name":"Pinetop-Lakeside","state":"Arizona","url":"/eclipse/in/usa/pinetop-lakeside","img_url":"//c.tadst.com/scripts/eclipsegfx.php?v=2&t=1&w=120&h=120&sr=0.263532&mr=0.271625&mx=-0.131671&my=-0.069274&hz=57.964365","_geoloc":{"lat":34.1425438,"lng":-109.9603842}},{"name":"Prescott","state":"Arizona","url":"/eclipse/in/usa/prescott","img_url":"//c.tadst.com/scripts/eclipsegfx.php?v=2&t=1&w=120&h=120&sr=0.263532&mr=0.271504&mx=-0.134253&my=-0.065190&hz=55.104873","_geoloc":{"lat":34.5402813,"lng":-112.4695179}},{"name":"Sahuarita","state":"Arizona","url":"/eclipse/in/usa/sahuarita","img_url":"//c.tadst.com/scripts/eclipsegfx.php?v=2&t=1&w=120&h=120&sr=0.263532&mr=0.271640&mx=-0.172476&my=-0.074197&hz=58.223447","_geoloc":{"lat":31.9575818,"lng":-110.9556459}},{"name":"Scottsdale","state":"Arizona","url":"/eclipse/in/usa/scottsdale","img_url":"//c.tadst.com/scripts/eclipsegfx.php?v=2&t=1&w=120&h=120&sr=0.263532&mr=0.271557&mx=-0.149565&my=-0.069122&hz=56.292223","_geoloc":{"lat":33.5091215,"lng":-111.8992364}},{"name":"Sedona","state":"Arizona","url":"/eclipse/in/usa/sedona","img_url":"//c.tadst.com/scripts/eclipsegfx.php?v=2&t=1&w=120&h=120&sr=0.263532&mr=0.271528&mx=-0.126678&my=-0.064675&hz=55.663644","_geoloc":{"lat":34.8657757,"lng":-111.792989}},{"name":"Seligman","state":"Arizona","url":"/eclipse/in/usa/seligman","img_url":"//c.tadst.com/scripts/eclipsegfx.php?v=2&t=1&w=120&h=120&sr=0.263532&mr=0.271464&mx=-0.122624&my=-0.061791&hz=54.243492","_geoloc":{"lat":35.325434,"lng":-112.85082}},{"name":"Sierra Vista","state":"Arizona","url":"/eclipse/in/usa/sierra-vista","img_url":"//c.tadst.com/scripts/eclipsegfx.php?v=2&t=1&w=120&h=120&sr=0.263532&mr=0.271681&mx=-0.176820&my=-0.076109&hz=59.234302","_geoloc":{"lat":31.5545401,"lng":-110.3036928}},{"name":"Surprise","state":"Arizona","url":"/eclipse/in/usa/surprise","img_url":"//c.tadst.com/scripts/eclipsegfx.php?v=2&t=1&w=120&h=120&sr=0.263532&mr=0.271532&mx=-0.149190&my=-0.068209&hz=55.705165","_geoloc":{"lat":33.6292271,"lng":-112.3680188}},{"name":"Tempe","state":"Arizona","url":"/eclipse/in/usa/tempe","img_url":"//c.tadst.com/scripts/eclipsegfx.php?v=2&t=1&w=120&h=120&sr=0.263532&mr=0.271559&mx=-0.151219&my=-0.069337&hz=56.335385","_geoloc":{"lat":33.4144139,"lng":-111.9094473}},{"name":"Tuba City","state":"Arizona","url":"/eclipse/in/usa/tuba-city","img_url":"//c.tadst.com/scripts/eclipsegfx.php?v=2&t=1&w=120&h=120&sr=0.263532&mr=0.271515&mx=-0.104541&my=-0.058826&hz=55.437555","_geoloc":{"lat":36.1355819,"lng":-111.2403033}},{"name":"Tucson","state":"Arizona","url":"/eclipse/in/usa/tucson","img_url":"//c.tadst.com/scripts/eclipsegfx.php?v=2&t=1&w=120&h=120&sr=0.263532&mr=0.271635&mx=-0.167818&my=-0.073718&hz=58.099857","_geoloc":{"lat":32.2218917,"lng":-110.9262352}},{"name":"Wellton","state":"Arizona","url":"/eclipse/in/usa/wellton","img_url":"//c.tadst.com/scripts/eclipsegfx.php?v=2&t=1&w=120&h=120&sr=0.263531&mr=0.271467&mx=-0.171180&my=-0.068151&hz=54.217385","_geoloc":{"lat":32.6728314,"lng":-114.1468893}},{"name":"Window Rock","state":"Arizona","url":"/eclipse/in/usa/window-rock","img_url":"//c.tadst.com/scripts/eclipsegfx.php?v=2&t=1&w=120&h=120&sr=0.263532&mr=0.271617&mx=-0.103446&my=-0.062685&hz=57.837695","_geoloc":{"lat":35.6805731,"lng":-109.0525929}},{"name":"Winslow","state":"Arizona","url":"/eclipse/in/usa/winslow","img_url":"//c.tadst.com/scripts/eclipsegfx.php?v=2&t=1&w=120&h=120&sr=0.263532&mr=0.271569&mx=-0.120136&my=-0.064734&hz=56.655163","_geoloc":{"lat":35.0241874,"lng":-110.6973571}},{"name":"Yuma","state":"Arizona","url":"/eclipse/in/usa/yuma","img_url":"//c.tadst.com/scripts/eclipsegfx.php?v=2&t=1&w=120&h=120&sr=0.263531&mr=0.271441&mx=-0.172100&my=-0.067563&hz=53.647770","_geoloc":{"lat":32.7253249,"lng":-114.6243969}},{"name":"Batesville","state":"Arkansas","url":"/eclipse/in/usa/batesville-ar","img_url":"//c.tadst.com/scripts/eclipsegfx.php?v=2&t=1&w=120&h=120&sr=0.263534&mr=0.271884&mx=-0.013145&my=-0.037885&hz=66.577310","_geoloc":{"lat":35.769799,"lng":-91.6409721}},{"name":"Bentonville","state":"Arkansas","url":"/eclipse/in/usa/bentonville","img_url":"//c.tadst.com/scripts/eclipsegfx.php?v=2&t=1&w=120&h=120&sr=0.263534&mr=0.271877&mx=-0.020574&my=-0.040805&hz=66.000831","_geoloc":{"lat":36.3728538,"lng":-94.2088171}},{"name":"Fayetteville","state":"Arkansas","url":"/eclipse/in/usa/fayetteville-ar","img_url":"//c.tadst.com/scripts/eclipsegfx.php?v=2&t=1&w=120&h=120&sr=0.263534&mr=0.271887&mx=-0.022388&my=-0.044703&hz=66.321752","_geoloc":{"lat":36.0625843,"lng":-94.1574327}},{"name":"Fort Smith","state":"Arkansas","url":"/eclipse/in/usa/fort-smith","img_url":"//c.tadst.com/scripts/eclipsegfx.php?v=2&t=1&w=120&h=120&sr=0.263534&mr=0.271909&mx=-0.028230&my=-0.054480&hz=66.978111","_geoloc":{"lat":35.3872218,"lng":-94.4248982}},{"name":"Little Rock","state":"Arkansas","url":"/eclipse/in/usa/little-rock","img_url":"//c.tadst.com/scripts/eclipsegfx.php?v=2&t=1&w=120&h=120&sr=0.263535&mr=0.271920&mx=-0.020630&my=-0.054873&hz=67.643913","_geoloc":{"lat":34.7464809,"lng":-92.2895947}},{"name":"Ozone","state":"Arkansas","url":"/eclipse/in/usa/ozone","img_url":"//c.tadst.com/scripts/eclipsegfx.php?v=2&t=1&w=120&h=120&sr=0.263534&mr=0.271899&mx=-0.021617&my=-0.047505&hz=66.787794","_geoloc":{"lat":35.6411927,"lng":-93.4432385}},{"name":"Rogers","state":"Arkansas","url":"/eclipse/in/usa/rogers","img_url":"//c.tadst.com/scripts/eclipsegfx.php?v=2&t=1&w=120&h=120&sr=0.263534&mr=0.271878&mx=-0.020601&my=-0.040971&hz=66.051145","_geoloc":{"lat":36.3320197,"lng":-94.1185365}},{"name":"Texarkana","state":"Arkansas","url":"/eclipse/in/usa/texarkana","img_url":"//c.tadst.com/scripts/eclipsegfx.php?v=2&t=1&w=120&h=120&sr=0.263535&mr=0.271968&mx=-0.038312&my=-0.079442&hz=68.993707","_geoloc":{"lat":33.441795,"lng":-94.0376923}},{"name":"Aliso Viejo","state":"California","url":"/eclipse/in/usa/aliso-viejo","img_url":"//c.tadst.com/scripts/eclipsegfx.php?v=2&t=1&w=120&h=120&sr=0.263531&mr=0.271251&mx=-0.164405&my=-0.063321&hz=49.743282","_geoloc":{"lat":33.5761376,"lng":-117.7258121}},{"name":"Anaheim","state":"California","url":"/eclipse/in/usa/anaheim","img_url":"//c.tadst.com/scripts/eclipsegfx.php?v=2&t=1&w=120&h=120&sr=0.263531&mr=0.271235&mx=-0.160230&my=-0.062694&hz=49.437595","_geoloc":{"lat":33.8347516,"lng":-117.9117319}},{"name":"Angels Camp","state":"California","url":"/eclipse/in/usa/angels-camp","img_url":"//c.tadst.com/scripts/eclipsegfx.php?v=2&t=1&w=120&h=120&sr=0.263530&mr=0.271000&mx=-0.094536&my=-0.046547&hz=45.148040","_geoloc":{"lat":38.0682555,"lng":-120.5396455}},{"name":"Antioch","state":"California","url":"/eclipse/in/usa/antioch","img_url":"//c.tadst.com/scripts/eclipsegfx.php?v=2&t=1&w=120&h=120&sr=0.263530&mr=0.270930&mx=-0.097131&my=-0.046593&hz=43.897566","_geoloc":{"lat":38.0049214,"lng":-121.8057889}},{"name":"Arcata","state":"California","url":"/eclipse/in/usa/arcata","img_url":"//c.tadst.com/scripts/eclipsegfx.php?v=2&t=1&w=120&h=120&sr=0.263529&mr=0.270746&mx=-0.055142&my=-0.030267&hz=40.843335","_geoloc":{"lat":40.866517,"lng":-124.0828399}},{"name":"Arden-Arcade","state":"California","url":"/eclipse/in/usa/arden-arcade","img_url":"//c.tadst.com/scripts/eclipsegfx.php?v=2&t=1&w=120&h=120&sr=0.263530&mr=0.270943&mx=-0.087292&my=-0.043707&hz=44.153905","_geoloc":{"lat":38.6040415,"lng":-121.3830032}},{"name":"Atascadero","state":"California","url":"/eclipse/in/usa/atascadero","img_url":"//c.tadst.com/scripts/eclipsegfx.php?v=2&t=1&w=120&h=120&sr=0.263530&mr=0.271042&mx=-0.136638&my=-0.057096&hz=45.837245","_geoloc":{"lat":35.4894169,"lng":-120.6707254}},{"name":"Auburn","state":"California","url":"/eclipse/in/usa/auburn","img_url":"//c.tadst.com/scripts/eclipsegfx.php?v=2&t=1&w=120&h=120&sr=0.263530&mr=0.270953&mx=-0.082284&my=-0.042241&hz=44.344863","_geoloc":{"lat":38.8945939,"lng":-121.0739896}},{"name":"Avalon (Santa Catalina Island)","state":"California","url":"/eclipse/in/usa/avalon-santa-catalina-island","img_url":"//c.tadst.com/scripts/eclipsegfx.php?v=2&t=1&w=120&h=120&sr=0.263530&mr=0.271221&mx=-0.169525&my=-0.063157&hz=49.142038","_geoloc":{"lat":33.34281,"lng":-118.32785}},{"name":"Bakersfield","state":"California","url":"/eclipse/in/usa/bakersfield","img_url":"//c.tadst.com/scripts/eclipsegfx.php?v=2&t=1&w=120&h=120&sr=0.263530&mr=0.271141&mx=-0.136221&my=-0.057997&hz=47.670515","_geoloc":{"lat":35.3738712,"lng":-119.0194638}},{"name":"Banning","state":"California","url":"/eclipse/in/usa/banning","img_url":"//c.tadst.com/scripts/eclipsegfx.php?v=2&t=1&w=120&h=120&sr=0.263531&mr=0.271292&mx=-0.156547&my=-0.063285&hz=50.567007","_geoloc":{"lat":33.9255685,"lng":-116.8752889}},{"name":"Berkeley","state":"California","url":"/eclipse/in/usa/berkeley","img_url":"//c.tadst.com/scripts/eclipsegfx.php?v=2&t=1&w=120&h=120&sr=0.263530&mr=0.270905&mx=-0.099636&my=-0.047332&hz=43.456553","_geoloc":{"lat":37.8708393,"lng":-122.2728638}},{"name":"Big Bear Lake","state":"California","url":"/eclipse/in/usa/big-bear-lake","img_url":"//c.tadst.com/scripts/eclipsegfx.php?v=2&t=1&w=120&h=120&sr=0.263531&mr=0.271284&mx=-0.151274&my=-0.062354&hz=50.408091","_geoloc":{"lat":34.253293,"lng":-116.9322096}},{"name":"Borrego Springs","state":"California","url":"/eclipse/in/usa/borrego-springs","img_url":"//c.tadst.com/scripts/eclipsegfx.php?v=2&t=1&w=120&h=120&sr=0.263531&mr=0.271334&mx=-0.166910&my=-0.064985&hz=51.402110","_geoloc":{"lat":33.255356,"lng":-116.3569465}},{"name":"Burbank","state":"California","url":"/eclipse/in/usa/burbank","img_url":"//c.tadst.com/scripts/eclipsegfx.php?v=2&t=1&w=120&h=120&sr=0.263530&mr=0.271205&mx=-0.155098&my=-0.061651&hz=48.849643","_geoloc":{"lat":34.1816482,"lng":-118.3258553}},{"name":"Burney","state":"California","url":"/eclipse/in/usa/burney","img_url":"//c.tadst.com/scripts/eclipsegfx.php?v=2&t=1&w=120&h=120&sr=0.263530&mr=0.270879&mx=-0.053123&my=-0.029931&hz=43.114153","_geoloc":{"lat":40.8884145,"lng":-121.6727825}},{"name":"Calabasas","state":"California","url":"/eclipse/in/usa/calabasas","img_url":"//c.tadst.com/scripts/eclipsegfx.php?v=2&t=1&w=120&h=120&sr=0.263530&mr=0.271186&mx=-0.156495&my=-0.061613&hz=48.485868","_geoloc":{"lat":34.1446643,"lng":-118.6440972}},{"name":"Calexico","state":"California","url":"/eclipse/in/usa/calexico","img_url":"//c.tadst.com/scripts/eclipsegfx.php?v=2&t=1&w=120&h=120&sr=0.263531&mr=0.271395&mx=-0.174898&my=-0.066582&hz=52.653057","_geoloc":{"lat":32.6790572,"lng":-115.4987029}},{"name":"California City","state":"California","url":"/eclipse/in/usa/california-city","img_url":"//c.tadst.com/scripts/eclipsegfx.php?v=2&t=1&w=120&h=120&sr=0.263530&mr=0.271206&mx=-0.138598&my=-0.059260&hz=48.898572","_geoloc":{"lat":35.125801,"lng":-117.9859037}},{"name":"Camarillo","state":"California","url":"/eclipse/in/usa/camarillo","img_url":"//c.tadst.com/scripts/eclipsegfx.php?v=2&t=1&w=120&h=120&sr=0.263530&mr=0.271163&mx=-0.155545&my=-0.061159&hz=48.046198","_geoloc":{"lat":34.2163939,"lng":-119.0376023}},{"name":"Carlsbad","state":"California","url":"/eclipse/in/usa/carlsbad","img_url":"//c.tadst.com/scripts/eclipsegfx.php?v=2&t=1&w=120&h=120&sr=0.263531&mr=0.271281&mx=-0.170769&my=-0.064253&hz=50.324169","_geoloc":{"lat":33.1580933,"lng":-117.3505965}},{"name":"Chico","state":"California","url":"/eclipse/in/usa/chico","img_url":"//c.tadst.com/scripts/eclipsegfx.php?v=2&t=1&w=120&h=120&sr=0.263530&mr=0.270894&mx=-0.070405&my=-0.037342&hz=43.327422","_geoloc":{"lat":39.7284945,"lng":-121.8374776}},{"name":"Chino","state":"California","url":"/eclipse/in/usa/chino","img_url":"//c.tadst.com/scripts/eclipsegfx.php?v=2&t=1&w=120&h=120&sr=0.263531&mr=0.271245&mx=-0.156837&my=-0.062298&hz=49.629274","_geoloc":{"lat":34.0133561,"lng":-117.6900749}},{"name":"Chula Vista","state":"California","url":"/eclipse/in/usa/chula-vista","img_url":"//c.tadst.com/scripts/eclipsegfx.php?v=2&t=1&w=120&h=120&sr=0.263531&mr=0.271307&mx=-0.179220&my=-0.065106&hz=50.825994","_geoloc":{"lat":32.6400541,"lng":-117.0841954}},{"name":"Citrus Heights","state":"California","url":"/eclipse/in/usa/citrus-heights","img_url":"//c.tadst.com/scripts/eclipsegfx.php?v=2&t=1&w=120&h=120&sr=0.263530&mr=0.270946&mx=-0.085544&my=-0.043129&hz=44.205653","_geoloc":{"lat":38.7071247,"lng":-121.281061}},{"name":"Claremont","state":"California","url":"/eclipse/in/usa/claremont","img_url":"//c.tadst.com/scripts/eclipsegfx.php?v=2&t=1&w=120&h=120&sr=0.263531&mr=0.271241&mx=-0.155384&my=-0.062309&hz=49.557071","_geoloc":{"lat":34.0966764,"lng":-117.7197784}},{"name":"Coachella","state":"California","url":"/eclipse/in/usa/coachella","img_url":"//c.tadst.com/scripts/eclipsegfx.php?v=2&t=1&w=120&h=120&sr=0.263531&mr=0.271336&mx=-0.159151&my=-0.064332&hz=51.456274","_geoloc":{"lat":33.686566,"lng":-116.1532774}},{"name":"Compton","state":"California","url":"/eclipse/in/usa/compton","img_url":"//c.tadst.com/scripts/eclipsegfx.php?v=2&t=1&w=120&h=120&sr=0.263530&mr=0.271216&mx=-0.159802&my=-0.062347&hz=49.062328","_geoloc":{"lat":33.894927,"lng":-118.2266239}},{"name":"Concord","state":"California","url":"/eclipse/in/usa/concord-ca","img_url":"//c.tadst.com/scripts/eclipsegfx.php?v=2&t=1&w=120&h=120&sr=0.263530&mr=0.270917&mx=-0.097768&my=-0.046798&hz=43.673293","_geoloc":{"lat":37.9768525,"lng":-122.0335623}},{"name":"Corona","state":"California","url":"/eclipse/in/usa/corona","img_url":"//c.tadst.com/scripts/eclipsegfx.php?v=2&t=1&w=120&h=120&sr=0.263531&mr=0.271255&mx=-0.158893&my=-0.062761&hz=49.815444","_geoloc":{"lat":37.0066161,"lng":-121.9969062}},{"name":"Costa Mesa","state":"California","url":"/eclipse/in/usa/costa-mesa","img_url":"//c.tadst.com/scripts/eclipsegfx.php?v=2&t=1&w=120&h=120&sr=0.263531&mr=0.271239&mx=-0.163175&my=-0.062975&hz=49.510951","_geoloc":{"lat":33.6633386,"lng":-117.9033169}},{"name":"Cottonwood","state":"California","url":"/eclipse/in/usa/cottonwood","img_url":"//c.tadst.com/scripts/eclipsegfx.php?v=2&t=1&w=120&h=120&sr=0.263529&mr=0.270856&mx=-0.060901&my=-0.033410&hz=42.691660","_geoloc":{"lat":38.6582375,"lng":-121.97108}},{"name":"Crestline","state":"California","url":"/eclipse/in/usa/crestline","img_url":"//c.tadst.com/scripts/eclipsegfx.php?v=2&t=1&w=120&h=120&sr=0.263531&mr=0.271263&mx=-0.152004&my=-0.062216&hz=49.992282","_geoloc":{"lat":34.2495525,"lng":-117.2938955}},{"name":"Culver City","state":"California","url":"/eclipse/in/usa/culver-city","img_url":"//c.tadst.com/scripts/eclipsegfx.php?v=2&t=1&w=120&h=120&sr=0.263530&mr=0.271204&mx=-0.157949&my=-0.062004&hz=48.827236","_geoloc":{"lat":34.0211224,"lng":-118.3964664}},{"name":"Cupertino","state":"California","url":"/eclipse/in/usa/cupertino","img_url":"//c.tadst.com/scripts/eclipsegfx.php?v=2&t=1&w=120&h=120&sr=0.263530&mr=0.270929&mx=-0.108234&my=-0.049698&hz=43.864595","_geoloc":{"lat":37.3230107,"lng":-122.0322518}},{"name":"Daly City","state":"California","url":"/eclipse/in/usa/daly-city","img_url":"//c.tadst.com/scripts/eclipsegfx.php?v=2&t=1&w=120&h=120&sr=0.263529&mr=0.270897&mx=-0.102490&my=-0.047966&hz=43.313151","_geoloc":{"lat":37.7057671,"lng":-122.4619204}},{"name":"Davis","state":"California","url":"/eclipse/in/usa/davis","img_url":"//c.tadst.com/scripts/eclipsegfx.php?v=2&t=1&w=120&h=120&sr=0.263530&mr=0.270923&mx=-0.088579&my=-0.043924&hz=43.799362","_geoloc":{"lat":38.545379,"lng":-121.7445834}},{"name":"Dinuba","state":"California","url":"/eclipse/in/usa/dinuba","img_url":"//c.tadst.com/scripts/eclipsegfx.php?v=2&t=1&w=120&h=120&sr=0.263530&mr=0.271097&mx=-0.117506&my=-0.053704&hz=46.869026","_geoloc":{"lat":36.5432837,"lng":-119.3870655}},{"name":"Downey","state":"California","url":"/eclipse/in/usa/downey","img_url":"//c.tadst.com/scripts/eclipsegfx.php?v=2&t=1&w=120&h=120&sr=0.263530&mr=0.271221&mx=-0.158815&my=-0.062414&hz=49.148137","_geoloc":{"lat":33.9400143,"lng":-118.1325687}},{"name":"El Centro","state":"California","url":"/eclipse/in/usa/el-centro","img_url":"//c.tadst.com/scripts/eclipsegfx.php?v=2&t=1&w=120&h=120&sr=0.263531&mr=0.271389&mx=-0.173120&my=-0.066274&hz=52.532887","_geoloc":{"lat":32.792,"lng":-115.5630513}},{"name":"El Monte","state":"California","url":"/eclipse/in/usa/el-monte","img_url":"//c.tadst.com/scripts/eclipsegfx.php?v=2&t=1&w=120&h=120&sr=0.263531&mr=0.271224&mx=-0.156357&my=-0.062118&hz=49.209947","_geoloc":{"lat":34.0751571,"lng":-118.0368489}},{"name":"El Segundo","state":"California","url":"/eclipse/in/usa/el-segundo","img_url":"//c.tadst.com/scripts/eclipsegfx.php?v=2&t=1&w=120&h=120&sr=0.263530&mr=0.271205&mx=-0.159653&my=-0.062155&hz=48.838891","_geoloc":{"lat":33.912594,"lng":-118.3831789}},{"name":"Encino","state":"California","url":"/eclipse/in/usa/encino","img_url":"//c.tadst.com/scripts/eclipsegfx.php?v=2&t=1&w=120&h=120&sr=0.263530&mr=0.271194&mx=-0.155914&my=-0.061667&hz=48.638347","_geoloc":{"lat":34.1591324,"lng":-118.5016165}},{"name":"Escondido","state":"California","url":"/eclipse/in/usa/escondido","img_url":"//c.tadst.com/scripts/eclipsegfx.php?v=2&t=1&w=120&h=120&sr=0.263531&mr=0.271297&mx=-0.170812&my=-0.064588&hz=50.645548","_geoloc":{"lat":33.1216751,"lng":-117.0814848}},{"name":"Eureka","state":"California","url":"/eclipse/in/usa/eureka","img_url":"//c.tadst.com/scripts/eclipsegfx.php?v=2&t=1&w=120&h=120&sr=0.263529&mr=0.270743&mx=-0.056244&my=-0.030513&hz=40.792154","_geoloc":{"lat":40.8020712,"lng":-124.1636728}},{"name":"Firebaugh","state":"California","url":"/eclipse/in/usa/firebaugh","img_url":"//c.tadst.com/scripts/eclipsegfx.php?v=2&t=1&w=120&h=120&sr=0.263530&mr=0.271029&mx=-0.113869&my=-0.052133&hz=45.641059","_geoloc":{"lat":36.8588376,"lng":-120.4560071}},{"name":"Fontana","state":"California","url":"/eclipse/in/usa/fontana","img_url":"//c.tadst.com/scripts/eclipsegfx.php?v=2&t=1&w=120&h=120&sr=0.263531&mr=0.271257&mx=-0.154896&my=-0.062455&hz=49.877333","_geoloc":{"lat":34.0922335,"lng":-117.4350479}},{"name":"Fort Bragg","state":"California","url":"/eclipse/in/usa/fort-bragg-ca","img_url":"//c.tadst.com/scripts/eclipsegfx.php?v=2&t=1&w=120&h=120&sr=0.263529&mr=0.270788&mx=-0.076476&my=-0.038721&hz=41.503833","_geoloc":{"lat":39.445723,"lng":-123.8052939}},{"name":"Fremont","state":"California","url":"/eclipse/in/usa/fremont","img_url":"//c.tadst.com/scripts/eclipsegfx.php?v=2&t=1&w=120&h=120&sr=0.263530&mr=0.270928&mx=-0.104583&my=-0.048700&hz=43.845610","_geoloc":{"lat":37.5482697,"lng":-121.9885718}},{"name":"Fresno","state":"California","url":"/eclipse/in/usa/fresno","img_url":"//c.tadst.com/scripts/eclipsegfx.php?v=2&t=1&w=120&h=120&sr=0.263530&mr=0.271070&mx=-0.114915&my=-0.052764&hz=46.384942","_geoloc":{"lat":36.7394421,"lng":-119.7848306}},{"name":"Fullerton","state":"California","url":"/eclipse/in/usa/fullerton","img_url":"//c.tadst.com/scripts/eclipsegfx.php?v=2&t=1&w=120&h=120&sr=0.263531&mr=0.271234&mx=-0.159638&my=-0.062642&hz=49.403846","_geoloc":{"lat":33.8708215,"lng":-117.9294164}},{"name":"Furnace Creek (Death Valley)","state":"California","url":"/eclipse/in/usa/furnace-creek-death-valley","img_url":"//c.tadst.com/scripts/eclipsegfx.php?v=2&t=1&w=120&h=120&sr=0.263531&mr=0.271236&mx=-0.114380&my=-0.055097&hz=49.535867","_geoloc":{"lat":36.4478,"lng":-116.8529}},{"name":"Garden Grove","state":"California","url":"/eclipse/in/usa/garden-grove","img_url":"//c.tadst.com/scripts/eclipsegfx.php?v=2&t=1&w=120&h=120&sr=0.263531&mr=0.271235&mx=-0.161311&my=-0.062836&hz=49.418813","_geoloc":{"lat":33.7746292,"lng":-117.9463716}},{"name":"Glendale","state":"California","url":"/eclipse/in/usa/glendale-ca","img_url":"//c.tadst.com/scripts/eclipsegfx.php?v=2&t=1&w=120&h=120&sr=0.263530&mr=0.271210&mx=-0.155613&my=-0.061814&hz=48.949352","_geoloc":{"lat":34.142498,"lng":-118.2485959}},{"name":"Grover Beach","state":"California","url":"/eclipse/in/usa/grover-beach","img_url":"//c.tadst.com/scripts/eclipsegfx.php?v=2&t=1&w=120&h=120&sr=0.263530&mr=0.271052&mx=-0.142804&my=-0.058018&hz=46.006190","_geoloc":{"lat":35.1209452,"lng":-120.6218375}},{"name":"Hayfork","state":"California","url":"/eclipse/in/usa/hayfork","img_url":"//c.tadst.com/scripts/eclipsegfx.php?v=2&t=1&w=120&h=120&sr=0.263529&mr=0.270802&mx=-0.059224&my=-0.032189&hz=41.788119","_geoloc":{"lat":40.5881175,"lng":-123.1348306}},{"name":"Hayward","state":"California","url":"/eclipse/in/usa/hayward","img_url":"//c.tadst.com/scripts/eclipsegfx.php?v=2&t=1&w=120&h=120&sr=0.263530&mr=0.270920&mx=-0.102777&my=-0.048076&hz=43.718037","_geoloc":{"lat":37.6688205,"lng":-122.0807963}},{"name":"Hesperia","state":"California","url":"/eclipse/in/usa/hesperia","img_url":"//c.tadst.com/scripts/eclipsegfx.php?v=2&t=1&w=120&h=120&sr=0.263531&mr=0.271259&mx=-0.149019&my=-0.061786&hz=49.910547","_geoloc":{"lat":34.4263886,"lng":-117.3008783}},{"name":"Hollywood","state":"California","url":"/eclipse/in/usa/hollywood","img_url":"//c.tadst.com/scripts/eclipsegfx.php?v=2&t=1&w=120&h=120&sr=0.263530&mr=0.271206&mx=-0.156422&my=-0.061947&hz=48.865456","_geoloc":{"lat":34.1028268,"lng":-118.3299898}},{"name":"Huntington Beach","state":"California","url":"/eclipse/in/usa/huntington-beach","img_url":"//c.tadst.com/scripts/eclipsegfx.php?v=2&t=1&w=120&h=120&sr=0.263531&mr=0.271233&mx=-0.163072&my=-0.062975&hz=49.392511","_geoloc":{"lat":33.6783336,"lng":-118.0000165}},{"name":"Imperial Beach","state":"California","url":"/eclipse/in/usa/imperial-beach","img_url":"//c.tadst.com/scripts/eclipsegfx.php?v=2&t=1&w=120&h=120&sr=0.263531&mr=0.271306&mx=-0.180228&my=-0.065237&hz=50.808038","_geoloc":{"lat":32.5839444,"lng":-117.1130848}},{"name":"Inglewood","state":"California","url":"/eclipse/in/usa/inglewood","img_url":"//c.tadst.com/scripts/eclipsegfx.php?v=2&t=1&w=120&h=120&sr=0.263530&mr=0.271208&mx=-0.158915&my=-0.062064&hz=48.897676","_geoloc":{"lat":33.9616801,"lng":-118.353131}},{"name":"Irvine","state":"California","url":"/eclipse/in/usa/irvine","img_url":"//c.tadst.com/scripts/eclipsegfx.php?v=2&t=1&w=120&h=120&sr=0.263531&mr=0.271244&mx=-0.162677&my=-0.062901&hz=49.593426","_geoloc":{"lat":33.6856969,"lng":-117.8259818}},{"name":"Joshua Tree","state":"California","url":"/eclipse/in/usa/joshua-tree","img_url":"//c.tadst.com/scripts/eclipsegfx.php?v=2&t=1&w=120&h=120&sr=0.263531&mr=0.271319&mx=-0.151812&my=-0.063065&hz=51.116397","_geoloc":{"lat":34.1265262,"lng":-116.3209348}},{"name":"Laguna Hills","state":"California","url":"/eclipse/in/usa/laguna-hills","img_url":"//c.tadst.com/scripts/eclipsegfx.php?v=2&t=1&w=120&h=120&sr=0.263531&mr=0.271252&mx=-0.163955&my=-0.063381&hz=49.759100","_geoloc":{"lat":33.5948758,"lng":-117.6882066}},{"name":"Laguna Niguel","state":"California","url":"/eclipse/in/usa/laguna-niguel","img_url":"//c.tadst.com/scripts/eclipsegfx.php?v=2&t=1&w=120&h=120&sr=0.263531&mr=0.271254&mx=-0.165113&my=-0.063428&hz=49.783426","_geoloc":{"lat":33.5225261,"lng":-117.7075525}},{"name":"Lakeport","state":"California","url":"/eclipse/in/usa/lakeport","img_url":"//c.tadst.com/scripts/eclipsegfx.php?v=2&t=1&w=120&h=120&sr=0.263529&mr=0.270846&mx=-0.081951&my=-0.041058&hz=42.486387","_geoloc":{"lat":39.0429506,"lng":-122.9158292}},{"name":"Lancaster","state":"California","url":"/eclipse/in/usa/lancaster","img_url":"//c.tadst.com/scripts/eclipsegfx.php?v=2&t=1&w=120&h=120&sr=0.263530&mr=0.271205&mx=-0.146028&my=-0.060396&hz=48.877776","_geoloc":{"lat":34.6981064,"lng":-118.1366152}},{"name":"Livermore","state":"California","url":"/eclipse/in/usa/livermore","img_url":"//c.tadst.com/scripts/eclipsegfx.php?v=2&t=1&w=120&h=120&sr=0.263530&mr=0.270938&mx=-0.102216&my=-0.048134&hz=44.029670","_geoloc":{"lat":37.6820583,"lng":-121.768053}},{"name":"Loma Linda","state":"California","url":"/eclipse/in/usa/loma-linda","img_url":"//c.tadst.com/scripts/eclipsegfx.php?v=2&t=1&w=120&h=120&sr=0.263531&mr=0.271268&mx=-0.155255&my=-0.062752&hz=50.087452","_geoloc":{"lat":34.075626,"lng":-117.2520476}},{"name":"Lompoc","state":"California","url":"/eclipse/in/usa/lompoc","img_url":"//c.tadst.com/scripts/eclipsegfx.php?v=2&t=1&w=120&h=120&sr=0.263530&mr=0.271070&mx=-0.150567&my=-0.059397&hz=46.325043","_geoloc":{"lat":34.6391501,"lng":-120.4579408}},{"name":"Long Beach","state":"California","url":"/eclipse/in/usa/long-beach","img_url":"//c.tadst.com/scripts/eclipsegfx.php?v=2&t=1&w=120&h=120&sr=0.263530&mr=0.271221&mx=-0.161744&my=-0.062609&hz=49.145839","_geoloc":{"lat":33.7853894,"lng":-118.1580492}},{"name":"Los Angeles","state":"California","url":"/eclipse/in/usa/los-angeles","img_url":"//c.tadst.com/scripts/eclipsegfx.php?v=2&t=1&w=120&h=120&sr=0.263530&mr=0.271211&mx=-0.157175&my=-0.062035&hz=48.973368","_geoloc":{"lat":34.054935,"lng":-118.2444759}},{"name":"Manteca","state":"California","url":"/eclipse/in/usa/manteca","img_url":"//c.tadst.com/scripts/eclipsegfx.php?v=2&t=1&w=120&h=120&sr=0.263530&mr=0.270968&mx=-0.099856&my=-0.047682&hz=44.563435","_geoloc":{"lat":37.7986184,"lng":-121.2117147}},{"name":"Mission Viejo","state":"California","url":"/eclipse/in/usa/mission-viejo","img_url":"//c.tadst.com/scripts/eclipsegfx.php?v=2&t=1&w=120&h=120&sr=0.263531&mr=0.271254&mx=-0.163804&my=-0.063261&hz=49.795532","_geoloc":{"lat":33.5965685,"lng":-117.6594049}},{"name":"Modesto","state":"California","url":"/eclipse/in/usa/modesto","img_url":"//c.tadst.com/scripts/eclipsegfx.php?v=2&t=1&w=120&h=120&sr=0.263530&mr=0.270983&mx=-0.101995&my=-0.048593&hz=44.832020","_geoloc":{"lat":37.6390972,"lng":-120.9968781}},{"name":"Monterey","state":"California","url":"/eclipse/in/usa/monterey","img_url":"//c.tadst.com/scripts/eclipsegfx.php?v=2&t=1&w=120&h=120&sr=0.263530&mr=0.270950&mx=-0.119799&my=-0.052743&hz=44.211914","_geoloc":{"lat":36.600256,"lng":-121.8946387}},{"name":"Moorpark","state":"California","url":"/eclipse/in/usa/moorpark","img_url":"//c.tadst.com/scripts/eclipsegfx.php?v=2&t=1&w=120&h=120&sr=0.263530&mr=0.271171&mx=-0.154360&my=-0.061041&hz=48.196598","_geoloc":{"lat":34.285558,"lng":-118.8820413}},{"name":"Moreno Valley","state":"California","url":"/eclipse/in/usa/moreno-valley","img_url":"//c.tadst.com/scripts/eclipsegfx.php?v=2&t=1&w=120&h=120&sr=0.263531&mr=0.271272&mx=-0.157095&my=-0.062988&hz=50.165308","_geoloc":{"lat":33.937517,"lng":-117.2305943}},{"name":"Mountain View","state":"California","url":"/eclipse/in/usa/mountain-view","img_url":"//c.tadst.com/scripts/eclipsegfx.php?v=2&t=1&w=120&h=120&sr=0.263530&mr=0.270925&mx=-0.107326&my=-0.049304&hz=43.798823","_geoloc":{"lat":37.3855745,"lng":-122.0820499}},{"name":"Napa","state":"California","url":"/eclipse/in/usa/napa","img_url":"//c.tadst.com/scripts/eclipsegfx.php?v=2&t=1&w=120&h=120&sr=0.263529&mr=0.270896&mx=-0.093033&my=-0.044976&hz=43.327202","_geoloc":{"lat":38.2971367,"lng":-122.2855292}},{"name":"Newport Beach","state":"California","url":"/eclipse/in/usa/newport-beach","img_url":"//c.tadst.com/scripts/eclipsegfx.php?v=2&t=1&w=120&h=120&sr=0.263531&mr=0.271239&mx=-0.163979&my=-0.063184&hz=49.492689","_geoloc":{"lat":33.6170092,"lng":-117.92944}},{"name":"Norwalk","state":"California","url":"/eclipse/in/usa/norwalk","img_url":"//c.tadst.com/scripts/eclipsegfx.php?v=2&t=1&w=120&h=120&sr=0.263531&mr=0.271224&mx=-0.159249&my=-0.062520&hz=49.212564","_geoloc":{"lat":33.9092802,"lng":-118.0849168}},{"name":"Novato","state":"California","url":"/eclipse/in/usa/novato","img_url":"//c.tadst.com/scripts/eclipsegfx.php?v=2&t=1&w=120&h=120&sr=0.263529&mr=0.270883&mx=-0.096164&my=-0.046144&hz=43.087668","_geoloc":{"lat":38.1061979,"lng":-122.568119}},{"name":"Oakland","state":"California","url":"/eclipse/in/usa/oakland","img_url":"//c.tadst.com/scripts/eclipsegfx.php?v=2&t=1&w=120&h=120&sr=0.263530&mr=0.270906&mx=-0.100765&my=-0.047484&hz=43.482075","_geoloc":{"lat":37.8044557,"lng":-122.2713562}},{"name":"Oceanside","state":"California","url":"/eclipse/in/usa/oceanside","img_url":"//c.tadst.com/scripts/eclipsegfx.php?v=2&t=1&w=120&h=120&sr=0.263531&mr=0.271279&mx=-0.170182&my=-0.064166&hz=50.278043","_geoloc":{"lat":33.1958696,"lng":-117.3794833}},{"name":"Ontario","state":"California","url":"/eclipse/in/usa/ontario","img_url":"//c.tadst.com/scripts/eclipsegfx.php?v=2&t=1&w=120&h=120&sr=0.263531&mr=0.271246&mx=-0.155778&my=-0.062478&hz=49.644173","_geoloc":{"lat":34.065846,"lng":-117.6484303}},{"name":"Orange","state":"California","url":"/eclipse/in/usa/orange","img_url":"//c.tadst.com/scripts/eclipsegfx.php?v=2&t=1&w=120&h=120&sr=0.263531&mr=0.271240&mx=-0.160977&my=-0.062699&hz=49.528600","_geoloc":{"lat":33.7500378,"lng":-117.870493}},{"name":"Orangevale","state":"California","url":"/eclipse/in/usa/orangevale","img_url":"//c.tadst.com/scripts/eclipsegfx.php?v=2&t=1&w=120&h=120&sr=0.263530&mr=0.270949&mx=-0.085949&my=-0.043233&hz=44.271426","_geoloc":{"lat":38.6840715,"lng":-121.2183989}},{"name":"Oroville","state":"California","url":"/eclipse/in/usa/oroville","img_url":"//c.tadst.com/scripts/eclipsegfx.php?v=2&t=1&w=120&h=120&sr=0.263530&mr=0.270914&mx=-0.073489&my=-0.038496&hz=43.676440","_geoloc":{"lat":39.5137752,"lng":-121.5563589}},{"name":"Oxnard","state":"California","url":"/eclipse/in/usa/oxnard","img_url":"//c.tadst.com/scripts/eclipsegfx.php?v=2&t=1&w=120&h=120&sr=0.263530&mr=0.271155&mx=-0.156304&my=-0.061078&hz=47.892334","_geoloc":{"lat":34.1976308,"lng":-119.1803817}},{"name":"Pacoima","state":"California","url":"/eclipse/in/usa/pacoima","img_url":"//c.tadst.com/scripts/eclipsegfx.php?v=2&t=1&w=120&h=120&sr=0.263530&mr=0.271198&mx=-0.153657&my=-0.061340&hz=48.722734","_geoloc":{"lat":34.2625025,"lng":-118.4270269}},{"name":"Palm Springs","state":"California","url":"/eclipse/in/usa/palm-springs","img_url":"//c.tadst.com/scripts/eclipsegfx.php?v=2&t=1&w=120&h=120&sr=0.263531&mr=0.271313&mx=-0.157559&my=-0.063772&hz=50.977745","_geoloc":{"lat":33.7721795,"lng":-116.4952976}},{"name":"Palmdale","state":"California","url":"/eclipse/in/usa/palmdale","img_url":"//c.tadst.com/scripts/eclipsegfx.php?v=2&t=1&w=120&h=120&sr=0.263530&mr=0.271209&mx=-0.147967&my=-0.060792&hz=48.939480","_geoloc":{"lat":34.5793131,"lng":-118.1171107}},{"name":"Palo Alto","state":"California","url":"/eclipse/in/usa/palo-alto","img_url":"//c.tadst.com/scripts/eclipsegfx.php?v=2&t=1&w=120&h=120&sr=0.263530&mr=0.270919&mx=-0.106422&my=-0.049211&hz=43.693469","_geoloc":{"lat":37.442156,"lng":-122.1634471}},{"name":"Paradise","state":"California","url":"/eclipse/in/usa/paradise-ca","img_url":"//c.tadst.com/scripts/eclipsegfx.php?v=2&t=1&w=120&h=120&sr=0.263530&mr=0.270905&mx=-0.069844&my=-0.037110&hz=43.529603","_geoloc":{"lat":39.7596061,"lng":-121.6219176}},{"name":"Pasadena","state":"California","url":"/eclipse/in/usa/pasadena-ca","img_url":"//c.tadst.com/scripts/eclipsegfx.php?v=2&t=1&w=120&h=120&sr=0.263530&mr=0.271216&mx=-0.155377&my=-0.061753&hz=49.067718","_geoloc":{"lat":34.1476452,"lng":-118.1444778}},{"name":"Petaluma","state":"California","url":"/eclipse/in/usa/petaluma","img_url":"//c.tadst.com/scripts/eclipsegfx.php?v=2&t=1&w=120&h=120&sr=0.263529&mr=0.270877&mx=-0.094281&my=-0.045469&hz=42.987899","_geoloc":{"lat":38.2325829,"lng":-122.6364649}},{"name":"Placerville","state":"California","url":"/eclipse/in/usa/placerville","img_url":"//c.tadst.com/scripts/eclipsegfx.php?v=2&t=1&w=120&h=120&sr=0.263530&mr=0.270972&mx=-0.084660&my=-0.043039&hz=44.675967","_geoloc":{"lat":38.7296252,"lng":-120.7985459}},{"name":"Pleasanton","state":"California","url":"/eclipse/in/usa/pleasanton","img_url":"//c.tadst.com/scripts/eclipsegfx.php?v=2&t=1&w=120&h=120&sr=0.263530&mr=0.270932&mx=-0.102656&my=-0.048167&hz=43.929710","_geoloc":{"lat":37.6624312,"lng":-121.8746788}},{"name":"Pomona","state":"California","url":"/eclipse/in/usa/pomona","img_url":"//c.tadst.com/scripts/eclipsegfx.php?v=2&t=1&w=120&h=120&sr=0.263531&mr=0.271240&mx=-0.156177&my=-0.062272&hz=49.538759","_geoloc":{"lat":34.0553813,"lng":-117.7517495}},{"name":"Poway","state":"California","url":"/eclipse/in/usa/poway","img_url":"//c.tadst.com/scripts/eclipsegfx.php?v=2&t=1&w=120&h=120&sr=0.263531&mr=0.271303&mx=-0.173487&my=-0.064802&hz=50.759334","_geoloc":{"lat":32.9628234,"lng":-117.0358645}},{"name":"Rancho Cucamonga","state":"California","url":"/eclipse/in/usa/rancho-cucamonga","img_url":"//c.tadst.com/scripts/eclipsegfx.php?v=2&t=1&w=120&h=120&sr=0.263531&mr=0.271248&mx=-0.154966&my=-0.062327&hz=49.695969","_geoloc":{"lat":34.1033192,"lng":-117.5751734}},{"name":"Rancho Santa Margarita","state":"California","url":"/eclipse/in/usa/rancho-santa-margarita","img_url":"//c.tadst.com/scripts/eclipsegfx.php?v=2&t=1&w=120&h=120&sr=0.263531&mr=0.271257&mx=-0.162952&my=-0.063268&hz=49.857940","_geoloc":{"lat":33.6408845,"lng":-117.602934}},{"name":"Redding","state":"California","url":"/eclipse/in/usa/redding","img_url":"//c.tadst.com/scripts/eclipsegfx.php?v=2&t=1&w=120&h=120&sr=0.263529&mr=0.270846&mx=-0.058116&my=-0.031990&hz=42.528347","_geoloc":{"lat":40.5863563,"lng":-122.3916753}},{"name":"Redlands","state":"California","url":"/eclipse/in/usa/redlands","img_url":"//c.tadst.com/scripts/eclipsegfx.php?v=2&t=1&w=120&h=120&sr=0.263531&mr=0.271272&mx=-0.154976&my=-0.062726&hz=50.176069","_geoloc":{"lat":34.0707195,"lng":-117.0995056}},{"name":"Rialto","state":"California","url":"/eclipse/in/usa/rialto","img_url":"//c.tadst.com/scripts/eclipsegfx.php?v=2&t=1&w=120&h=120&sr=0.263531&mr=0.271261&mx=-0.154527&my=-0.062439&hz=49.946454","_geoloc":{"lat":34.1064001,"lng":-117.3703234}},{"name":"Ridgecrest","state":"California","url":"/eclipse/in/usa/ridgecrest","img_url":"//c.tadst.com/scripts/eclipsegfx.php?v=2&t=1&w=120&h=120&sr=0.263531&mr=0.271212&mx=-0.129706&my=-0.057826&hz=49.034785","_geoloc":{"lat":35.6225064,"lng":-117.6699413}},{"name":"Riverside","state":"California","url":"/eclipse/in/usa/riverside","img_url":"//c.tadst.com/scripts/eclipsegfx.php?v=2&t=1&w=120&h=120&sr=0.263531&mr=0.271262&mx=-0.157167&my=-0.062833&hz=49.973390","_geoloc":{"lat":33.9533546,"lng":-117.3961622}},{"name":"Roseville","state":"California","url":"/eclipse/in/usa/roseville","img_url":"//c.tadst.com/scripts/eclipsegfx.php?v=2&t=1&w=120&h=120&sr=0.263530&mr=0.270944&mx=-0.084842&my=-0.042970&hz=44.185655","_geoloc":{"lat":38.72338,"lng":-121.1858782}},{"name":"Sacramento","state":"California","url":"/eclipse/in/usa/sacramento","img_url":"//c.tadst.com/scripts/eclipsegfx.php?v=2&t=1&w=120&h=120&sr=0.263530&mr=0.270936&mx=-0.087691&my=-0.043848&hz=44.030818","_geoloc":{"lat":38.5815719,"lng":-121.4943995}},{"name":"Salinas","state":"California","url":"/eclipse/in/usa/salinas","img_url":"//c.tadst.com/scripts/eclipsegfx.php?v=2&t=1&w=120&h=120&sr=0.263530&mr=0.270963&mx=-0.118310&my=-0.052399&hz=44.443220","_geoloc":{"lat":36.6744117,"lng":-121.6550371}},{"name":"San Bernardino","state":"California","url":"/eclipse/in/usa/san-bernardino","img_url":"//c.tadst.com/scripts/eclipsegfx.php?v=2&t=1&w=120&h=120&sr=0.263531&mr=0.271265&mx=-0.154322&my=-0.062519&hz=50.034975","_geoloc":{"lat":34.1083449,"lng":-117.2897651}},{"name":"San Buenaventura","state":"California","url":"/eclipse/in/usa/san-buenaventura","img_url":"//c.tadst.com/scripts/eclipsegfx.php?v=2&t=1&w=120&h=120&sr=0.263530&mr=0.271146&mx=-0.155101&my=-0.060869&hz=47.734880","_geoloc":{"lat":34.2783355,"lng":-119.2931742}},{"name":"San Diego","state":"California","url":"/eclipse/in/usa/san-diego","img_url":"//c.tadst.com/scripts/eclipsegfx.php?v=2&t=1&w=120&h=120&sr=0.263531&mr=0.271301&mx=-0.178075&my=-0.064863&hz=50.709420","_geoloc":{"lat":32.7174209,"lng":-117.1627713}},{"name":"San Francisco","state":"California","url":"/eclipse/in/usa/san-francisco","img_url":"//c.tadst.com/scripts/eclipsegfx.php?v=2&t=1&w=120&h=120&sr=0.263529&mr=0.270898&mx=-0.101235&my=-0.047726&hz=43.333253","_geoloc":{"lat":37.7792808,"lng":-122.4192362}},{"name":"San Jose","state":"California","url":"/eclipse/in/usa/san-jose","img_url":"//c.tadst.com/scripts/eclipsegfx.php?v=2&t=1&w=120&h=120&sr=0.263530&mr=0.270937&mx=-0.107839&my=-0.049751&hz=44.004741","_geoloc":{"lat":37.3361905,"lng":-121.8905832}},{"name":"San Luis Obispo","state":"California","url":"/eclipse/in/usa/san-luis-obispo","img_url":"//c.tadst.com/scripts/eclipsegfx.php?v=2&t=1&w=120&h=120&sr=0.263530&mr=0.271047&mx=-0.140148&my=-0.057619&hz=45.911928","_geoloc":{"lat":35.2827525,"lng":-120.6596155}},{"name":"San Rafael","state":"California","url":"/eclipse/in/usa/san-rafael","img_url":"//c.tadst.com/scripts/eclipsegfx.php?v=2&t=1&w=120&h=120&sr=0.263529&mr=0.270888&mx=-0.098388&my=-0.046507&hz=43.175790","_geoloc":{"lat":37.9735346,"lng":-122.5310873}},{"name":"San Ramon","state":"California","url":"/eclipse/in/usa/san-ramon","img_url":"//c.tadst.com/scripts/eclipsegfx.php?v=2&t=1&w=120&h=120&sr=0.263530&mr=0.270924&mx=-0.100873&my=-0.047770&hz=43.789722","_geoloc":{"lat":37.7799273,"lng":-121.9780152}},{"name":"Santa Ana","state":"California","url":"/eclipse/in/usa/santa-ana","img_url":"//c.tadst.com/scripts/eclipsegfx.php?v=2&t=1&w=120&h=120&sr=0.263531&mr=0.271240&mx=-0.161703&my=-0.062825&hz=49.521931","_geoloc":{"lat":33.7494951,"lng":-117.8732212}},{"name":"Santa Barbara","state":"California","url":"/eclipse/in/usa/santa-barbara","img_url":"//c.tadst.com/scripts/eclipsegfx.php?v=2&t=1&w=120&h=120&sr=0.263530&mr=0.271120&mx=-0.153532&my=-0.060259&hz=47.245233","_geoloc":{"lat":34.4221319,"lng":-119.7026672}},{"name":"Santa Clara","state":"California","url":"/eclipse/in/usa/santa-clara","img_url":"//c.tadst.com/scripts/eclipsegfx.php?v=2&t=1&w=120&h=120&sr=0.263530&mr=0.270933&mx=-0.107651&my=-0.049592&hz=43.935149","_geoloc":{"lat":37.3541132,"lng":-121.9551743}},{"name":"Santa Clarita","state":"California","url":"/eclipse/in/usa/santa-clarita","img_url":"//c.tadst.com/scripts/eclipsegfx.php?v=2&t=1&w=120&h=120&sr=0.263530&mr=0.271188&mx=-0.151869&my=-0.061148&hz=48.530295","_geoloc":{"lat":34.3916641,"lng":-118.5425859}},{"name":"Santa Cruz","state":"California","url":"/eclipse/in/usa/santa-cruz","img_url":"//c.tadst.com/scripts/eclipsegfx.php?v=2&t=1&w=120&h=120&sr=0.263530&mr=0.270936&mx=-0.114046&my=-0.051106&hz=43.978765","_geoloc":{"lat":36.974201,"lng":-122.0297181}},{"name":"Santa Maria","state":"California","url":"/eclipse/in/usa/santa-maria","img_url":"//c.tadst.com/scripts/eclipsegfx.php?v=2&t=1&w=120&h=120&sr=0.263530&mr=0.271066&mx=-0.145382&my=-0.058587&hz=46.259183","_geoloc":{"lat":34.9531295,"lng":-120.4358576}},{"name":"Santa Monica","state":"California","url":"/eclipse/in/usa/santa-monica","img_url":"//c.tadst.com/scripts/eclipsegfx.php?v=2&t=1&w=120&h=120&sr=0.263530&mr=0.271198&mx=-0.158201&my=-0.061794&hz=48.716847","_geoloc":{"lat":34.019657,"lng":-118.4875489}},{"name":"Santa Rosa","state":"California","url":"/eclipse/in/usa/santa-rosa","img_url":"//c.tadst.com/scripts/eclipsegfx.php?v=2&t=1&w=120&h=120&sr=0.263529&mr=0.270869&mx=-0.091139&my=-0.044297&hz=42.854805","_geoloc":{"lat":38.4404675,"lng":-122.7144313}},{"name":"Santa Ynez","state":"California","url":"/eclipse/in/usa/santa-ynez","img_url":"//c.tadst.com/scripts/eclipsegfx.php?v=2&t=1&w=120&h=120&sr=0.263530&mr=0.271094&mx=-0.150612&my=-0.059686&hz=46.752135","_geoloc":{"lat":34.608637,"lng":-120.1046773}},{"name":"Simi Valley","state":"California","url":"/eclipse/in/usa/simi-valley","img_url":"//c.tadst.com/scripts/eclipsegfx.php?v=2&t=1&w=120&h=120&sr=0.263530&mr=0.271177&mx=-0.154434&my=-0.061104&hz=48.312205","_geoloc":{"lat":34.2694474,"lng":-118.7814819}},{"name":"Solvang","state":"California","url":"/eclipse/in/usa/solvang","img_url":"//c.tadst.com/scripts/eclipsegfx.php?v=2&t=1&w=120&h=120&sr=0.263530&mr=0.271090&mx=-0.150979&my=-0.059745&hz=46.690811","_geoloc":{"lat":34.5958572,"lng":-120.1390893}},{"name":"Sonoma","state":"California","url":"/eclipse/in/usa/sonoma","img_url":"//c.tadst.com/scripts/eclipsegfx.php?v=2&t=1&w=120&h=120&sr=0.263529&mr=0.270886&mx=-0.093181&my=-0.045199&hz=43.150964","_geoloc":{"lat":38.5110803,"lng":-122.8473387}},{"name":"South Lake Tahoe","state":"California","url":"/eclipse/in/usa/south-lake-tahoe","img_url":"//c.tadst.com/scripts/eclipsegfx.php?v=2&t=1&w=120&h=120&sr=0.263530&mr=0.271013&mx=-0.080384&my=-0.041904&hz=45.416312","_geoloc":{"lat":38.929125,"lng":-119.9878464}},{"name":"Stockton","state":"California","url":"/eclipse/in/usa/stockton","img_url":"//c.tadst.com/scripts/eclipsegfx.php?v=2&t=1&w=120&h=120&sr=0.263530&mr=0.270960&mx=-0.097252&my=-0.047067&hz=44.430642","_geoloc":{"lat":37.9577016,"lng":-121.2907795}},{"name":"Sunnyvale","state":"California","url":"/eclipse/in/usa/sunnyvale","img_url":"//c.tadst.com/scripts/eclipsegfx.php?v=2&t=1&w=120&h=120&sr=0.263530&mr=0.270928&mx=-0.107466&my=-0.049576&hz=43.845078","_geoloc":{"lat":37.3688301,"lng":-122.0363495}},{"name":"Sylmar","state":"California","url":"/eclipse/in/usa/sylmar","img_url":"//c.tadst.com/scripts/eclipsegfx.php?v=2&t=1&w=120&h=120&sr=0.263530&mr=0.271195&mx=-0.153261&my=-0.061245&hz=48.659508","_geoloc":{"lat":34.3076252,"lng":-118.4492147}},{"name":"Tehachapi","state":"California","url":"/eclipse/in/usa/tehachapi","img_url":"//c.tadst.com/scripts/eclipsegfx.php?v=2&t=1&w=120&h=120&sr=0.263530&mr=0.271179&mx=-0.139237&my=-0.059171&hz=48.373157","_geoloc":{"lat":35.1321878,"lng":-118.4489738}},{"name":"Temecula","state":"California","url":"/eclipse/in/usa/temecula","img_url":"//c.tadst.com/scripts/eclipsegfx.php?v=2&t=1&w=120&h=120&sr=0.263531&mr=0.271287&mx=-0.164335&my=-0.063875&hz=50.454467","_geoloc":{"lat":33.4946353,"lng":-117.147366}},{"name":"Thousand Oaks","state":"California","url":"/eclipse/in/usa/thousand-oaks","img_url":"//c.tadst.com/scripts/eclipsegfx.php?v=2&t=1&w=120&h=120&sr=0.263530&mr=0.271175&mx=-0.156156&my=-0.061439&hz=48.277956","_geoloc":{"lat":34.1705609,"lng":-118.8375936}},{"name":"Torrance","state":"California","url":"/eclipse/in/usa/torrance","img_url":"//c.tadst.com/scripts/eclipsegfx.php?v=2&t=1&w=120&h=120&sr=0.263530&mr=0.271211&mx=-0.161044&my=-0.062332&hz=48.955394","_geoloc":{"lat":33.8358492,"lng":-118.3406287}},{"name":"Tracy","state":"California","url":"/eclipse/in/usa/tracy","img_url":"//c.tadst.com/scripts/eclipsegfx.php?v=2&t=1&w=120&h=120&sr=0.263530&mr=0.270957&mx=-0.100983&my=-0.047847&hz=44.366441","_geoloc":{"lat":37.7396513,"lng":-121.4252226}},{"name":"Truckee","state":"California","url":"/eclipse/in/usa/truckee","img_url":"//c.tadst.com/scripts/eclipsegfx.php?v=2&t=1&w=120&h=120&sr=0.263530&mr=0.270993&mx=-0.074636&my=-0.039808&hz=45.070344","_geoloc":{"lat":39.327962,"lng":-120.1832532}},{"name":"Tulare","state":"California","url":"/eclipse/in/usa/tulare","img_url":"//c.tadst.com/scripts/eclipsegfx.php?v=2&t=1&w=120&h=120&sr=0.263530&mr=0.271106&mx=-0.122985&my=-0.054898&hz=47.036555","_geoloc":{"lat":36.2516475,"lng":-118.8525829}},{"name":"Turlock","state":"California","url":"/eclipse/in/usa/turlock","img_url":"//c.tadst.com/scripts/eclipsegfx.php?v=2&t=1&w=120&h=120&sr=0.263530&mr=0.270995&mx=-0.104161&my=-0.049223&hz=45.035066","_geoloc":{"lat":37.4946568,"lng":-120.846594}},{"name":"Twentynine Palms","state":"California","url":"/eclipse/in/usa/twentynine-palms","img_url":"//c.tadst.com/scripts/eclipsegfx.php?v=2&t=1&w=120&h=120&sr=0.263531&mr=0.271333&mx=-0.151179&my=-0.063236&hz=51.405330","_geoloc":{"lat":34.1356915,"lng":-116.0543505}},{"name":"Ukiah","state":"California","url":"/eclipse/in/usa/ukiah","img_url":"//c.tadst.com/scripts/eclipsegfx.php?v=2&t=1&w=120&h=120&sr=0.263529&mr=0.270827&mx=-0.080485&my=-0.040591&hz=42.165174","_geoloc":{"lat":39.1501662,"lng":-123.207786}},{"name":"Vallejo","state":"California","url":"/eclipse/in/usa/vallejo","img_url":"//c.tadst.com/scripts/eclipsegfx.php?v=2&t=1&w=120&h=120&sr=0.263530&mr=0.270902&mx=-0.095938&my=-0.046197&hz=43.407098","_geoloc":{"lat":38.1040864,"lng":-122.2566366}},{"name":"Valley Village","state":"California","url":"/eclipse/in/usa/valley-village","img_url":"//c.tadst.com/scripts/eclipsegfx.php?v=2&t=1&w=120&h=120&sr=0.263530&mr=0.271202&mx=-0.155492&my=-0.061760&hz=48.786083","_geoloc":{"lat":34.1619724,"lng":-118.4024309}},{"name":"Venice","state":"California","url":"/eclipse/in/usa/venice","img_url":"//c.tadst.com/scripts/eclipsegfx.php?v=2&t=1&w=120&h=120&sr=0.263530&mr=0.271199&mx=-0.158462&my=-0.061983&hz=48.735970","_geoloc":{"lat":33.995044,"lng":-118.4668874}},{"name":"Victorville","state":"California","url":"/eclipse/in/usa/victorville","img_url":"//c.tadst.com/scripts/eclipsegfx.php?v=2&t=1&w=120&h=120&sr=0.263531&mr=0.271256&mx=-0.147133&my=-0.061296&hz=49.871397","_geoloc":{"lat":34.5361067,"lng":-117.2911564}},{"name":"Visalia","state":"California","url":"/eclipse/in/usa/visalia","img_url":"//c.tadst.com/scripts/eclipsegfx.php?v=2&t=1&w=120&h=120&sr=0.263530&mr=0.271106&mx=-0.120785&my=-0.054681&hz=47.040231","_geoloc":{"lat":36.3302284,"lng":-119.2920584}},{"name":"Vista","state":"California","url":"/eclipse/in/usa/vista","img_url":"//c.tadst.com/scripts/eclipsegfx.php?v=2&t=1&w=120&h=120&sr=0.263531&mr=0.271286&mx=-0.169779&my=-0.064377&hz=50.429747","_geoloc":{"lat":33.2000368,"lng":-117.2425354}},{"name":"Walnut Creek","state":"California","url":"/eclipse/in/usa/walnut-creek","img_url":"//c.tadst.com/scripts/eclipsegfx.php?v=2&t=1&w=120&h=120&sr=0.263530&mr=0.270917&mx=-0.098974&my=-0.046938&hz=43.665894","_geoloc":{"lat":37.9063131,"lng":-122.0649629}},{"name":"Watsonville","state":"California","url":"/eclipse/in/usa/watsonville","img_url":"//c.tadst.com/scripts/eclipsegfx.php?v=2&t=1&w=120&h=120&sr=0.263530&mr=0.270953&mx=-0.114603&my=-0.051515&hz=44.268153","_geoloc":{"lat":36.9529895,"lng":-121.7696088}},{"name":"West Covina","state":"California","url":"/eclipse/in/usa/west-covina","img_url":"//c.tadst.com/scripts/eclipsegfx.php?v=2&t=1&w=120&h=120&sr=0.263531&mr=0.271229&mx=-0.156316&my=-0.062105&hz=49.324983","_geoloc":{"lat":34.0686208,"lng":-117.9389525}},{"name":"Woodland","state":"California","url":"/eclipse/in/usa/woodland","img_url":"//c.tadst.com/scripts/eclipsegfx.php?v=2&t=1&w=120&h=120&sr=0.263530&mr=0.270918&mx=-0.086508&my=-0.043263&hz=43.723248","_geoloc":{"lat":38.6786109,"lng":-121.7733284}},{"name":"Yreka","state":"California","url":"/eclipse/in/usa/yreka","img_url":"//c.tadst.com/scripts/eclipsegfx.php?v=2&t=1&w=120&h=120&sr=0.263529&mr=0.270808&mx=-0.041668&my=-0.024212&hz=41.934305","_geoloc":{"lat":41.732616,"lng":-122.6377659}},{"name":"Yuba City","state":"California","url":"/eclipse/in/usa/yuba-city","img_url":"//c.tadst.com/scripts/eclipsegfx.php?v=2&t=1&w=120&h=120&sr=0.263530&mr=0.270918&mx=-0.079138&my=-0.040839&hz=43.729726","_geoloc":{"lat":39.1404477,"lng":-121.6169107}},{"name":"Yucaipa","state":"California","url":"/eclipse/in/usa/yucaipa","img_url":"//c.tadst.com/scripts/eclipsegfx.php?v=2&t=1&w=120&h=120&sr=0.263531&mr=0.271281&mx=-0.155119&my=-0.062882&hz=50.342164","_geoloc":{"lat":34.040931,"lng":-117.0516713}},{"name":"Aspen","state":"Colorado","url":"/eclipse/in/usa/aspen","img_url":"//c.tadst.com/scripts/eclipsegfx.php?v=2&t=1&w=120&h=120&sr=0.263532&mr=0.271578&mx=-0.045073&my=-0.036244&hz=57.168065","_geoloc":{"lat":39.1911128,"lng":-106.8235605}},{"name":"Aurora","state":"Colorado","url":"/eclipse/in/usa/aurora-co","img_url":"//c.tadst.com/scripts/eclipsegfx.php?v=2&t=1&w=120&h=120&sr=0.263533&mr=0.271615&mx=-0.031530&my=-0.028727&hz=58.157760","_geoloc":{"lat":39.729432,"lng":-104.8319195}},{"name":"Boulder","state":"Colorado","url":"/eclipse/in/usa/boulder","img_url":"//c.tadst.com/scripts/eclipsegfx.php?v=2&t=1&w=120&h=120&sr=0.263532&mr=0.271593&mx=-0.029451&my=-0.026712&hz=57.616706","_geoloc":{"lat":40.0149856,"lng":-105.2705455}},{"name":"Breckenridge","state":"Colorado","url":"/eclipse/in/usa/breckenridge","img_url":"//c.tadst.com/scripts/eclipsegfx.php?v=2&t=1&w=120&h=120&sr=0.263532&mr=0.271591&mx=-0.038765&my=-0.032674&hz=57.512499","_geoloc":{"lat":39.4816537,"lng":-106.0383517}},{"name":"Broomfield","state":"Colorado","url":"/eclipse/in/usa/broomfield","img_url":"//c.tadst.com/scripts/eclipsegfx.php?v=2&t=1&w=120&h=120&sr=0.263532&mr=0.271601&mx=-0.030097&my=-0.027236&hz=57.823478","_geoloc":{"lat":39.9379892,"lng":-105.0587293}},{"name":"Caon City","state":"Colorado","url":"/eclipse/in/usa/canon-city","img_url":"//c.tadst.com/scripts/eclipsegfx.php?v=2&t=1&w=120&h=120&sr=0.263533&mr=0.271651&mx=-0.048975&my=-0.041382&hz=58.954177"},{"name":"Castle Rock","state":"Colorado","url":"/eclipse/in/usa/castle-rock","img_url":"//c.tadst.com/scripts/eclipsegfx.php?v=2&t=1&w=120&h=120&sr=0.263533&mr=0.271628&mx=-0.036012&my=-0.032155&hz=58.443764","_geoloc":{"lat":39.3726585,"lng":-104.8584263}},{"name":"Centennial","state":"Colorado","url":"/eclipse/in/usa/centennial","img_url":"//c.tadst.com/scripts/eclipsegfx.php?v=2&t=1&w=120&h=120&sr=0.263533&mr=0.271619&mx=-0.033445&my=-0.030282&hz=58.251936","_geoloc":{"lat":39.5680644,"lng":-104.9778307}},{"name":"Clifton","state":"Colorado","url":"/eclipse/in/usa/clifton","img_url":"//c.tadst.com/scripts/eclipsegfx.php?v=2&t=1&w=120&h=120&sr=0.263532&mr=0.271528&mx=-0.051832&my=-0.038465&hz=55.955492","_geoloc":{"lat":39.0811315,"lng":-108.4792679}},{"name":"Colorado Springs","state":"Colorado","url":"/eclipse/in/usa/colorado-springs","img_url":"//c.tadst.com/scripts/eclipsegfx.php?v=2&t=1&w=120&h=120&sr=0.263533&mr=0.271648&mx=-0.042534&my=-0.037253&hz=58.920766","_geoloc":{"lat":38.8339578,"lng":-104.8253484}},{"name":"Denver","state":"Colorado","url":"/eclipse/in/usa/denver","img_url":"//c.tadst.com/scripts/eclipsegfx.php?v=2&t=1&w=120&h=120&sr=0.263532&mr=0.271610&mx=-0.031960&my=-0.028698&hz=58.037933","_geoloc":{"lat":39.7391536,"lng":-104.9847033}},{"name":"Durango","state":"Colorado","url":"/eclipse/in/usa/durango","img_url":"//c.tadst.com/scripts/eclipsegfx.php?v=2&t=1&w=120&h=120&sr=0.263532&mr=0.271609&mx=-0.075173&my=-0.052382&hz=57.766670","_geoloc":{"lat":37.2753739,"lng":-107.8799421}},{"name":"Elizabeth","state":"Colorado","url":"/eclipse/in/usa/elizabeth-co","img_url":"//c.tadst.com/scripts/eclipsegfx.php?v=2&t=1&w=120&h=120&sr=0.263533&mr=0.271635&mx=-0.035157&my=-0.032016&hz=58.627358","_geoloc":{"lat":39.3602863,"lng":-104.5968699}},{"name":"Fort Collins","state":"Colorado","url":"/eclipse/in/usa/fort-collins","img_url":"//c.tadst.com/scripts/eclipsegfx.php?v=2&t=1&w=120&h=120&sr=0.263532&mr=0.271576&mx=-0.022171&my=-0.020704&hz=57.273684","_geoloc":{"lat":40.5508527,"lng":-105.0668084}},{"name":"Grand Junction","state":"Colorado","url":"/eclipse/in/usa/grand-junction","img_url":"//c.tadst.com/scripts/eclipsegfx.php?v=2&t=1&w=120&h=120&sr=0.263532&mr=0.271525&mx=-0.052423&my=-0.038787&hz=55.876730","_geoloc":{"lat":39.063956,"lng":-108.5507316}},{"name":"Greeley","state":"Colorado","url":"/eclipse/in/usa/greeley","img_url":"//c.tadst.com/scripts/eclipsegfx.php?v=2&t=1&w=120&h=120&sr=0.263532&mr=0.271592&mx=-0.023027&my=-0.021489&hz=57.652190","_geoloc":{"lat":40.4233142,"lng":-104.7091321}},{"name":"Johnstown","state":"Colorado","url":"/eclipse/in/usa/johnstown","img_url":"//c.tadst.com/scripts/eclipsegfx.php?v=2&t=1&w=120&h=120&sr=0.263532&mr=0.271590&mx=-0.024577&my=-0.022839&hz=57.589506","_geoloc":{"lat":40.3350303,"lng":-104.9092843}},{"name":"Lakewood","state":"Colorado","url":"/eclipse/in/usa/lakewood","img_url":"//c.tadst.com/scripts/eclipsegfx.php?v=2&t=1&w=120&h=120&sr=0.263532&mr=0.271609&mx=-0.032560&my=-0.029389&hz=58.000826","_geoloc":{"lat":39.6311085,"lng":-105.1100581}},{"name":"Montrose","state":"Colorado","url":"/eclipse/in/usa/montrose","img_url":"//c.tadst.com/scripts/eclipsegfx.php?v=2&t=1&w=120&h=120&sr=0.263532&mr=0.271569&mx=-0.058202&my=-0.043069&hz=56.873085","_geoloc":{"lat":38.4781927,"lng":-107.876277}},{"name":"Pueblo","state":"Colorado","url":"/eclipse/in/usa/pueblo","img_url":"//c.tadst.com/scripts/eclipsegfx.php?v=2&t=1&w=120&h=120&sr=0.263533&mr=0.271675&mx=-0.048931&my=-0.042468&hz=59.562592","_geoloc":{"lat":38.2544472,"lng":-104.6091409}},{"name":"Telluride","state":"Colorado","url":"/eclipse/in/usa/telluride","img_url":"//c.tadst.com/scripts/eclipsegfx.php?v=2&t=1&w=120&h=120&sr=0.263532&mr=0.271589&mx=-0.065551&my=-0.047273&hz=57.334601","_geoloc":{"lat":37.9374939,"lng":-107.8122851}},{"name":"Bridgeport","state":"Connecticut","url":"/eclipse/in/usa/bridgeport","img_url":"//c.tadst.com/scripts/eclipsegfx.php?v=2&t=1&w=120&h=120&sr=0.263534&mr=0.271238&mx=-0.025295&my=0.136646&hz=52.687995","_geoloc":{"lat":41.1670412,"lng":-73.2048347}},{"name":"Danbury","state":"Connecticut","url":"/eclipse/in/usa/danbury","img_url":"//c.tadst.com/scripts/eclipsegfx.php?v=2&t=1&w=120&h=120&sr=0.263534&mr=0.271243&mx=-0.024221&my=0.138031&hz=52.766648","_geoloc":{"lat":41.394817,"lng":-73.454011}},{"name":"Glastonbury","state":"Connecticut","url":"/eclipse/in/usa/glastonbury","img_url":"//c.tadst.com/scripts/eclipsegfx.php?v=2&t=1&w=120&h=120&sr=0.263534&mr=0.271199&mx=-0.027504&my=0.146010&hz=51.945908","_geoloc":{"lat":41.7123218,"lng":-72.6081459}},{"name":"Groton","state":"Connecticut","url":"/eclipse/in/usa/groton","img_url":"//c.tadst.com/scripts/eclipsegfx.php?v=2&t=1&w=120&h=120&sr=0.263534&mr=0.271186&mx=-0.029503&my=0.144505&hz=51.737861","_geoloc":{"lat":41.3506989,"lng":-72.0773653}},{"name":"Hartford","state":"Connecticut","url":"/eclipse/in/usa/hartford","img_url":"//c.tadst.com/scripts/eclipsegfx.php?v=2&t=1&w=120&h=120&sr=0.263534&mr=0.271203&mx=-0.026739&my=0.146324&hz=52.011978","_geoloc":{"lat":41.7645491,"lng":-72.6908672}},{"name":"New Haven","state":"Connecticut","url":"/eclipse/in/usa/new-haven","img_url":"//c.tadst.com/scripts/eclipsegfx.php?v=2&t=1&w=120&h=120&sr=0.263534&mr=0.271223&mx=-0.026395&my=0.139720&hz=52.405355","_geoloc":{"lat":41.3082138,"lng":-72.9250517}},{"name":"Stamford","state":"Connecticut","url":"/eclipse/in/usa/stamford","img_url":"//c.tadst.com/scripts/eclipsegfx.php?v=2&t=1&w=120&h=120&sr=0.263534&mr=0.271254&mx=-0.024408&my=0.133520&hz=52.990822","_geoloc":{"lat":41.0534302,"lng":-73.538734}},{"name":"Thompson","state":"Connecticut","url":"/eclipse/in/usa/thompson","img_url":"//c.tadst.com/scripts/eclipsegfx.php?v=2&t=1&w=120&h=120&sr=0.263534&mr=0.271165&mx=-0.029600&my=0.152861&hz=51.315063","_geoloc":{"lat":41.9587089,"lng":-71.8625714}},{"name":"Waterbury","state":"Connecticut","url":"/eclipse/in/usa/waterbury","img_url":"//c.tadst.com/scripts/eclipsegfx.php?v=2&t=1&w=120&h=120&sr=0.263534&mr=0.271223&mx=-0.025607&my=0.142022&hz=52.385435","_geoloc":{"lat":41.5581525,"lng":-73.0514965}},{"name":"Weston","state":"Connecticut","url":"/eclipse/in/usa/weston","img_url":"//c.tadst.com/scripts/eclipsegfx.php?v=2&t=1&w=120&h=120&sr=0.263534&mr=0.271244&mx=-0.024795&my=0.136182&hz=52.797811","_geoloc":{"lat":41.2011555,"lng":-73.3805285}},{"name":"Westport","state":"Connecticut","url":"/eclipse/in/usa/westport","img_url":"//c.tadst.com/scripts/eclipsegfx.php?v=2&t=1&w=120&h=120&sr=0.263534&mr=0.271245&mx=-0.024961&my=0.135492&hz=52.814486","_geoloc":{"lat":41.1414855,"lng":-73.3578954}},{"name":"Windsor","state":"Connecticut","url":"/eclipse/in/usa/windsor","img_url":"//c.tadst.com/scripts/eclipsegfx.php?v=2&t=1&w=120&h=120&sr=0.263534&mr=0.271200&mx=-0.026747&my=0.147561&hz=51.942306","_geoloc":{"lat":41.8525984,"lng":-72.6437021}},{"name":"Chincoteague","state":"Delaware","url":"/eclipse/in/usa/chincoteague","img_url":"//c.tadst.com/scripts/eclipsegfx.php?v=2&t=1&w=120&h=120&sr=0.263534&mr=0.271392&mx=-0.018970&my=0.085980&hz=55.863912","_geoloc":{"lat":37.931771,"lng":-75.4938179}},{"name":"Dover","state":"Delaware","url":"/eclipse/in/usa/dover","img_url":"//c.tadst.com/scripts/eclipsegfx.php?v=2&t=1&w=120&h=120&sr=0.263534&mr=0.271376&mx=-0.018357&my=0.100101&hz=55.432766","_geoloc":{"lat":39.158168,"lng":-75.5243681}},{"name":"Rehoboth Beach","state":"Delaware","url":"/eclipse/in/usa/rehoboth-beach","img_url":"//c.tadst.com/scripts/eclipsegfx.php?v=2&t=1&w=120&h=120&sr=0.263534&mr=0.271366&mx=-0.020001&my=0.097167&hz=55.281028","_geoloc":{"lat":38.7209436,"lng":-75.0760264}},{"name":"Wilmington","state":"Delaware","url":"/eclipse/in/usa/wilmington","img_url":"//c.tadst.com/scripts/eclipsegfx.php?v=2&t=1&w=120&h=120&sr=0.263534&mr=0.271364&mx=-0.018111&my=0.107115&hz=55.160646","_geoloc":{"lat":39.7459468,"lng":-75.5465889}},{"name":"Washington DC","state":"District of Columbia","url":"/eclipse/in/usa/washington-dc","img_url":"//c.tadst.com/scripts/eclipsegfx.php?v=2&t=1&w=120&h=120&sr=0.263534&mr=0.271441&mx=-0.013536&my=0.088517&hz=56.728486","_geoloc":{"lat":38.8949549,"lng":-77.0366455}},{"name":"Boca Raton","state":"Florida","url":"/eclipse/in/usa/boca-raton","img_url":"//c.tadst.com/scripts/eclipsegfx.php?v=2&t=1&w=120&h=120&sr=0.263536&mr=0.271724&mx=0.042285&my=-0.082577&hz=64.075819","_geoloc":{"lat":26.3586885,"lng":-80.0830983}},{"name":"Bradenton","state":"Florida","url":"/eclipse/in/usa/bradenton","img_url":"//c.tadst.com/scripts/eclipsegfx.php?v=2&t=1&w=120&h=120&sr=0.263536&mr=0.271828&mx=0.033142&my=-0.089919&hz=66.661836","_geoloc":{"lat":27.4989278,"lng":-82.5748193}},{"name":"Cape Canaveral","state":"Florida","url":"/eclipse/in/usa/cape-canaveral","img_url":"//c.tadst.com/scripts/eclipsegfx.php?v=2&t=1&w=120&h=120&sr=0.263536&mr=0.271739&mx=0.025812&my=-0.064287&hz=64.264607","_geoloc":{"lat":28.45077,"lng":-80.5266199}},{"name":"Cape Coral","state":"Florida","url":"/eclipse/in/usa/cape-coral","img_url":"//c.tadst.com/scripts/eclipsegfx.php?v=2&t=1&w=120&h=120&sr=0.263536&mr=0.271808&mx=0.041765&my=-0.095232&hz=66.218522","_geoloc":{"lat":26.6058996,"lng":-81.9807339}},{"name":"Clearwater","state":"Florida","url":"/eclipse/in/usa/clearwater","img_url":"//c.tadst.com/scripts/eclipsegfx.php?v=2&t=1&w=120&h=120&sr=0.263536&mr=0.271834&mx=0.029211&my=-0.086237&hz=66.755174","_geoloc":{"lat":27.9658533,"lng":-82.8001025}},{"name":"Cocoa Beach","state":"Florida","url":"/eclipse/in/usa/cocoa-beach","img_url":"//c.tadst.com/scripts/eclipsegfx.php?v=2&t=1&w=120&h=120&sr=0.263536&mr=0.271739&mx=0.026233&my=-0.065135&hz=64.285685","_geoloc":{"lat":28.3293255,"lng":-80.6263148}},{"name":"Crestview","state":"Florida","url":"/eclipse/in/usa/crestview","img_url":"//c.tadst.com/scripts/eclipsegfx.php?v=2&t=1&w=120&h=120&sr=0.263535&mr=0.271921&mx=0.004150&my=-0.078952&hz=68.740640","_geoloc":{"lat":30.7621326,"lng":-86.5705083}},{"name":"Daytona Beach","state":"Florida","url":"/eclipse/in/usa/daytona-beach","img_url":"//c.tadst.com/scripts/eclipsegfx.php?v=2&t=1&w=120&h=120&sr=0.263535&mr=0.271751&mx=0.020387&my=-0.057763&hz=64.479256","_geoloc":{"lat":29.2108147,"lng":-81.022833}},{"name":"DeLand","state":"Florida","url":"/eclipse/in/usa/deland","img_url":"//c.tadst.com/scripts/eclipsegfx.php?v=2&t=1&w=120&h=120&sr=0.263535&mr=0.271764&mx=0.021644&my=-0.062071&hz=64.828373","_geoloc":{"lat":29.0283213,"lng":-81.3031097}},{"name":"Deltona","state":"Florida","url":"/eclipse/in/usa/deltona","img_url":"//c.tadst.com/scripts/eclipsegfx.php?v=2&t=1&w=120&h=120&sr=0.263535&mr=0.271763&mx=0.022477&my=-0.063119&hz=64.819289","_geoloc":{"lat":28.9005446,"lng":-81.2636737}},{"name":"Destin","state":"Florida","url":"/eclipse/in/usa/destin","img_url":"//c.tadst.com/scripts/eclipsegfx.php?v=2&t=1&w=120&h=120&sr=0.263535&mr=0.271926&mx=0.005691&my=-0.083525&hz=68.926435","_geoloc":{"lat":30.3935337,"lng":-86.4957833}},{"name":"Fort Lauderdale","state":"Florida","url":"/eclipse/in/usa/fort-lauderdale","img_url":"//c.tadst.com/scripts/eclipsegfx.php?v=2&t=1&w=120&h=120&sr=0.263536&mr=0.271727&mx=0.044674&my=-0.085459&hz=64.179214","_geoloc":{"lat":26.1223084,"lng":-80.1433785}},{"name":"Fort Myers","state":"Florida","url":"/eclipse/in/usa/fort-myers","img_url":"//c.tadst.com/scripts/eclipsegfx.php?v=2&t=1&w=120&h=120&sr=0.263536&mr=0.271804&mx=0.040895&my=-0.093745&hz=66.104942","_geoloc":{"lat":26.640628,"lng":-81.8723083}},{"name":"Fort Walton Beach","state":"Florida","url":"/eclipse/in/usa/fort-walton-beach","img_url":"//c.tadst.com/scripts/eclipsegfx.php?v=2&t=1&w=120&h=120&sr=0.263535&mr=0.271928&mx=0.005156&my=-0.084051&hz=69.001292","_geoloc":{"lat":30.4057552,"lng":-86.6188419}},{"name":"Gainesville","state":"Florida","url":"/eclipse/in/usa/gainesville","img_url":"//c.tadst.com/scripts/eclipsegfx.php?v=2&t=1&w=120&h=120&sr=0.263535&mr=0.271799&mx=0.017629&my=-0.062189&hz=65.644171","_geoloc":{"lat":29.6519396,"lng":-82.324996}},{"name":"Hialeah","state":"Florida","url":"/eclipse/in/usa/hialeah","img_url":"//c.tadst.com/scripts/eclipsegfx.php?v=2&t=1&w=120&h=120&sr=0.263536&mr=0.271735&mx=0.047549&my=-0.089142&hz=64.381928","_geoloc":{"lat":25.8575963,"lng":-80.2781056}},{"name":"Hollywood","state":"Florida","url":"/eclipse/in/usa/hollywood-city","img_url":"//c.tadst.com/scripts/eclipsegfx.php?v=2&t=1&w=120&h=120&sr=0.263536&mr=0.271728&mx=0.045854&my=-0.086585&hz=64.207717","_geoloc":{"lat":26.0112014,"lng":-80.14949}},{"name":"Inverness","state":"Florida","url":"/eclipse/in/usa/inverness","img_url":"//c.tadst.com/scripts/eclipsegfx.php?v=2&t=1&w=120&h=120&sr=0.263536&mr=0.271808&mx=0.022997&my=-0.072239&hz=65.969542","_geoloc":{"lat":28.8358176,"lng":-82.3303714}},{"name":"Jacksonville","state":"Florida","url":"/eclipse/in/usa/jacksonville","img_url":"//c.tadst.com/scripts/eclipsegfx.php?v=2&t=1&w=120&h=120&sr=0.263535&mr=0.271765&mx=0.013747&my=-0.048817&hz=64.715993","_geoloc":{"lat":30.3321838,"lng":-81.6556509}},{"name":"Jacksonville Beach","state":"Florida","url":"/eclipse/in/usa/jacksonville-beach","img_url":"//c.tadst.com/scripts/eclipsegfx.php?v=2&t=1&w=120&h=120&sr=0.263535&mr=0.271755&mx=0.013973&my=-0.047490&hz=64.479170","_geoloc":{"lat":30.2946859,"lng":-81.3931395}},{"name":"Key West","state":"Florida","url":"/eclipse/in/usa/key-west","img_url":"//c.tadst.com/scripts/eclipsegfx.php?v=2&t=1&w=120&h=120&sr=0.263536&mr=0.271806&mx=0.062743&my=-0.114022&hz=66.352289","_geoloc":{"lat":24.5625566,"lng":-81.7724367}},{"name":"Kissimmee","state":"Florida","url":"/eclipse/in/usa/kissimmee","img_url":"//c.tadst.com/scripts/eclipsegfx.php?v=2&t=1&w=120&h=120&sr=0.263536&mr=0.271774&mx=0.027033&my=-0.071445&hz=65.164677","_geoloc":{"lat":28.2919905,"lng":-81.4078066}},{"name":"Lake Worth","state":"Florida","url":"/eclipse/in/usa/lake-worth","img_url":"//c.tadst.com/scripts/eclipsegfx.php?v=2&t=1&w=120&h=120&sr=0.263536&mr=0.271723&mx=0.039927&my=-0.079779&hz=64.022318","_geoloc":{"lat":26.6212134,"lng":-80.0626732}},{"name":"Lakeland","state":"Florida","url":"/eclipse/in/usa/lakeland","img_url":"//c.tadst.com/scripts/eclipsegfx.php?v=2&t=1&w=120&h=120&sr=0.263536&mr=0.271799&mx=0.028991&my=-0.078651&hz=65.831511","_geoloc":{"lat":28.0394654,"lng":-81.9498041}},{"name":"Leesburg","state":"Florida","url":"/eclipse/in/usa/leesburg-fl","img_url":"//c.tadst.com/scripts/eclipsegfx.php?v=2&t=1&w=120&h=120&sr=0.263536&mr=0.271789&mx=0.023211&my=-0.069041&hz=65.500074","_geoloc":{"lat":28.810823,"lng":-81.8778581}},{"name":"Macclenny","state":"Florida","url":"/eclipse/in/usa/macclenny","img_url":"//c.tadst.com/scripts/eclipsegfx.php?v=2&t=1&w=120&h=120&sr=0.263535&mr=0.271784&mx=0.014192&my=-0.052824&hz=65.194324","_geoloc":{"lat":30.2821807,"lng":-82.1220568}},{"name":"Melbourne","state":"Florida","url":"/eclipse/in/usa/melbourne","img_url":"//c.tadst.com/scripts/eclipsegfx.php?v=2&t=1&w=120&h=120&sr=0.263536&mr=0.271741&mx=0.028139&my=-0.067863&hz=64.347317","_geoloc":{"lat":28.0836269,"lng":-80.6081088}},{"name":"Merritt Island","state":"Florida","url":"/eclipse/in/usa/merritt-island","img_url":"//c.tadst.com/scripts/eclipsegfx.php?v=2&t=1&w=120&h=120&sr=0.263536&mr=0.271743&mx=0.026174&my=-0.065236&hz=64.366601","_geoloc":{"lat":28.2662775,"lng":-80.6636983}},{"name":"Miami","state":"Florida","url":"/eclipse/in/usa/miami","img_url":"//c.tadst.com/scripts/eclipsegfx.php?v=2&t=1&w=120&h=120&sr=0.263536&mr=0.271730&mx=0.048180&my=-0.089362&hz=64.286970","_geoloc":{"lat":25.7742658,"lng":-80.1936588}},{"name":"Middleburg","state":"Florida","url":"/eclipse/in/usa/middleburg","img_url":"//c.tadst.com/scripts/eclipsegfx.php?v=2&t=1&w=120&h=120&sr=0.263535&mr=0.271776&mx=0.015301&my=-0.053577&hz=65.023762","_geoloc":{"lat":30.0557025,"lng":-81.9036373}},{"name":"Naples","state":"Florida","url":"/eclipse/in/usa/naples","img_url":"//c.tadst.com/scripts/eclipsegfx.php?v=2&t=1&w=120&h=120&sr=0.263536&mr=0.271803&mx=0.045801&my=-0.098458&hz=66.128680","_geoloc":{"lat":26.1420358,"lng":-81.7948102}},{"name":"New Port Richey","state":"Florida","url":"/eclipse/in/usa/new-port-richey","img_url":"//c.tadst.com/scripts/eclipsegfx.php?v=2&t=1&w=120&h=120&sr=0.263536&mr=0.271828&mx=0.027142&my=-0.082307&hz=66.577343","_geoloc":{"lat":28.247132,"lng":-82.7170238}},{"name":"Ocala","state":"Florida","url":"/eclipse/in/usa/ocala","img_url":"//c.tadst.com/scripts/eclipsegfx.php?v=2&t=1&w=120&h=120&sr=0.263535&mr=0.271796&mx=0.020725&my=-0.066444&hz=65.637770","_geoloc":{"lat":29.1871986,"lng":-82.1400922}},{"name":"Okeechobee","state":"Florida","url":"/eclipse/in/usa/okeechobee","img_url":"//c.tadst.com/scripts/eclipsegfx.php?v=2&t=1&w=120&h=120&sr=0.263536&mr=0.271756&mx=0.035209&my=-0.078875&hz=64.791635","_geoloc":{"lat":27.3923408,"lng":-80.8873654}},{"name":"Orlando","state":"Florida","url":"/eclipse/in/usa/orlando","img_url":"//c.tadst.com/scripts/eclipsegfx.php?v=2&t=1&w=120&h=120&sr=0.263536&mr=0.271771&mx=0.025130&my=-0.068371&hz=65.060828","_geoloc":{"lat":28.5421175,"lng":-81.3790461}},{"name":"Palm Coast","state":"Florida","url":"/eclipse/in/usa/palm-coast","img_url":"//c.tadst.com/scripts/eclipsegfx.php?v=2&t=1&w=120&h=120&sr=0.263535&mr=0.271755&mx=0.018006&my=-0.054650&hz=64.543506","_geoloc":{"lat":29.5541432,"lng":-81.2207672}},{"name":"Palmetto","state":"Florida","url":"/eclipse/in/usa/palmetto","img_url":"//c.tadst.com/scripts/eclipsegfx.php?v=2&t=1&w=120&h=120&sr=0.263536&mr=0.271828&mx=0.032886&my=-0.089642&hz=66.652296","_geoloc":{"lat":27.5278065,"lng":-82.5836069}},{"name":"Panama City","state":"Florida","url":"/eclipse/in/usa/panama-city","img_url":"//c.tadst.com/scripts/eclipsegfx.php?v=2&t=1&w=120&h=120&sr=0.263535&mr=0.271906&mx=0.009495&my=-0.080680&hz=68.420829","_geoloc":{"lat":30.1600827,"lng":-85.6545728}},{"name":"Pembroke Pines","state":"Florida","url":"/eclipse/in/usa/pembroke-pines","img_url":"//c.tadst.com/scripts/eclipsegfx.php?v=2&t=1&w=120&h=120&sr=0.263536&mr=0.271732&mx=0.046093&my=-0.087217&hz=64.300297","_geoloc":{"lat":26.0232203,"lng":-80.341239}},{"name":"Pensacola","state":"Florida","url":"/eclipse/in/usa/pensacola","img_url":"//c.tadst.com/scripts/eclipsegfx.php?v=2&t=1&w=120&h=120&sr=0.263535&mr=0.271944&mx=0.002646&my=-0.088221&hz=69.428957","_geoloc":{"lat":30.421309,"lng":-87.2169148}},{"name":"Plantation","state":"Florida","url":"/eclipse/in/usa/plantation","img_url":"//c.tadst.com/scripts/eclipsegfx.php?v=2&t=1&w=120&h=120&sr=0.263536&mr=0.271732&mx=0.044734&my=-0.086100&hz=64.287889","_geoloc":{"lat":26.1265258,"lng":-80.2578611}},{"name":"Port St. Lucie","state":"Florida","url":"/eclipse/in/usa/port-st-lucie","img_url":"//c.tadst.com/scripts/eclipsegfx.php?v=2&t=1&w=120&h=120&sr=0.263536&mr=0.271734&mx=0.034434&my=-0.074946&hz=64.243177","_geoloc":{"lat":27.2939333,"lng":-80.3503282}},{"name":"Sarasota","state":"Florida","url":"/eclipse/in/usa/sarasota","img_url":"//c.tadst.com/scripts/eclipsegfx.php?v=2&t=1&w=120&h=120&sr=0.263536&mr=0.271829&mx=0.034642&my=-0.091486&hz=66.685308","_geoloc":{"lat":27.3364347,"lng":-82.5306526}},{"name":"Sebring","state":"Florida","url":"/eclipse/in/usa/sebring","img_url":"//c.tadst.com/scripts/eclipsegfx.php?v=2&t=1&w=120&h=120&sr=0.263536&mr=0.271781&mx=0.033354&my=-0.080866&hz=65.418863","_geoloc":{"lat":27.4957453,"lng":-81.4410424}},{"name":"Spring Hill","state":"Florida","url":"/eclipse/in/usa/spring-hill","img_url":"//c.tadst.com/scripts/eclipsegfx.php?v=2&t=1&w=120&h=120&sr=0.263536&mr=0.271819&mx=0.025418&my=-0.078016&hz=66.300214","_geoloc":{"lat":28.5558273,"lng":-82.4503731}},{"name":"St. Augustine","state":"Florida","url":"/eclipse/in/usa/st-augustine","img_url":"//c.tadst.com/scripts/eclipsegfx.php?v=2&t=1&w=120&h=120&sr=0.263535&mr=0.271756&mx=0.016161&my=-0.051699&hz=64.541350","_geoloc":{"lat":29.8946952,"lng":-81.3145394}},{"name":"St. Petersburg","state":"Florida","url":"/eclipse/in/usa/st-petersburg","img_url":"//c.tadst.com/scripts/eclipsegfx.php?v=2&t=1&w=120&h=120&sr=0.263536&mr=0.271830&mx=0.030983&my=-0.087448&hz=66.685101","_geoloc":{"lat":27.7703796,"lng":-82.6695084}},{"name":"Stuart","state":"Florida","url":"/eclipse/in/usa/stuart","img_url":"//c.tadst.com/scripts/eclipsegfx.php?v=2&t=1&w=120&h=120&sr=0.263536&mr=0.271730&mx=0.035095&my=-0.074900&hz=64.142029","_geoloc":{"lat":27.197983,"lng":-80.2519174}},{"name":"Sunrise","state":"Florida","url":"/eclipse/in/usa/sunrise","img_url":"//c.tadst.com/scripts/eclipsegfx.php?v=2&t=1&w=120&h=120&sr=0.263536&mr=0.271734&mx=0.044554&my=-0.086196&hz=64.348762","_geoloc":{"lat":26.1482449,"lng":-80.3288858}},{"name":"Tallahassee","state":"Florida","url":"/eclipse/in/usa/tallahassee","img_url":"//c.tadst.com/scripts/eclipsegfx.php?v=2&t=1&w=120&h=120&sr=0.263535&mr=0.271858&mx=0.011507&my=-0.066743&hz=67.103385","_geoloc":{"lat":30.4380832,"lng":-84.2809331}},{"name":"Tampa","state":"Florida","url":"/eclipse/in/usa/tampa","img_url":"//c.tadst.com/scripts/eclipsegfx.php?v=2&t=1&w=120&h=120&sr=0.263536&mr=0.271820&mx=0.029479&my=-0.083743&hz=66.396322","_geoloc":{"lat":27.9477595,"lng":-82.4584439}},{"name":"Titusville","state":"Florida","url":"/eclipse/in/usa/titusville","img_url":"//c.tadst.com/scripts/eclipsegfx.php?v=2&t=1&w=120&h=120&sr=0.263536&mr=0.271746&mx=0.024436&my=-0.063185&hz=64.430351","_geoloc":{"lat":28.6122187,"lng":-80.8075537}},{"name":"Vero Beach","state":"Florida","url":"/eclipse/in/usa/vero-beach","img_url":"//c.tadst.com/scripts/eclipsegfx.php?v=2&t=1&w=120&h=120&sr=0.263536&mr=0.271734&mx=0.031453&my=-0.071233&hz=64.212560","_geoloc":{"lat":27.6387163,"lng":-80.3975398}},{"name":"West Palm Beach","state":"Florida","url":"/eclipse/in/usa/west-palm-beach","img_url":"//c.tadst.com/scripts/eclipsegfx.php?v=2&t=1&w=120&h=120&sr=0.263536&mr=0.271722&mx=0.038965&my=-0.078607&hz=63.986154","_geoloc":{"lat":26.7153425,"lng":-80.0533745}},{"name":"Wright","state":"Florida","url":"/eclipse/in/usa/wright","img_url":"//c.tadst.com/scripts/eclipsegfx.php?v=2&t=1&w=120&h=120&sr=0.263535&mr=0.271929&mx=0.005054&my=-0.083750&hz=68.997991","_geoloc":{"lat":30.4557539,"lng":-86.6382868}},{"name":"Acworth","state":"Georgia","url":"/eclipse/in/usa/acworth","img_url":"//c.tadst.com/scripts/eclipsegfx.php?v=2&t=1&w=120&h=120&sr=0.263535&mr=0.271804&mx=0.000742&my=-0.020902&hz=65.188196","_geoloc":{"lat":34.0659329,"lng":-84.6768795}},{"name":"Athens","state":"Georgia","url":"/eclipse/in/usa/athens","img_url":"//c.tadst.com/scripts/eclipsegfx.php?v=2&t=1&w=120&h=120&sr=0.263535&mr=0.271767&mx=0.001195&my=-0.013795&hz=64.339458","_geoloc":{"lat":33.9550905,"lng":-83.3881867}},{"name":"Atlanta","state":"Georgia","url":"/eclipse/in/usa/atlanta","img_url":"//c.tadst.com/scripts/eclipsegfx.php?v=2&t=1&w=120&h=120&sr=0.263535&mr=0.271802&mx=0.001185&my=-0.023072&hz=65.190116","_geoloc":{"lat":33.7490987,"lng":-84.3901848}},{"name":"Augusta","state":"Georgia","url":"/eclipse/in/usa/augusta-ga","img_url":"//c.tadst.com/scripts/eclipsegfx.php?v=2&t=1&w=120&h=120&sr=0.263535&mr=0.271730&mx=0.001703&my=-0.010797&hz=63.518527","_geoloc":{"lat":33.4709714,"lng":-81.9748428}},{"name":"Braselton","state":"Georgia","url":"/eclipse/in/usa/braselton","img_url":"//c.tadst.com/scripts/eclipsegfx.php?v=2&t=1&w=120&h=120&sr=0.263535&mr=0.271776&mx=0.000917&my=-0.014344&hz=64.524416","_geoloc":{"lat":34.1092735,"lng":-83.7626728}},{"name":"Columbus","state":"Georgia","url":"/eclipse/in/usa/columbus-ga","img_url":"//c.tadst.com/scripts/eclipsegfx.php?v=2&t=1&w=120&h=120&sr=0.263535&mr=0.271846&mx=0.003215&my=-0.044696&hz=66.477587","_geoloc":{"lat":32.4609764,"lng":-84.9877093}},{"name":"Cumming","state":"Georgia","url":"/eclipse/in/usa/cumming","img_url":"//c.tadst.com/scripts/eclipsegfx.php?v=2&t=1&w=120&h=120&sr=0.263535&mr=0.271785&mx=0.000922&my=-0.015485&hz=64.729060","_geoloc":{"lat":34.2073196,"lng":-84.1401925}},{"name":"Fayetteville","state":"Georgia","url":"/eclipse/in/usa/fayetteville-ga","img_url":"//c.tadst.com/scripts/eclipsegfx.php?v=2&t=1&w=120&h=120&sr=0.263535&mr=0.271810&mx=0.001883&my=-0.027770&hz=65.451516","_geoloc":{"lat":33.4487257,"lng":-84.4549261}},{"name":"Gainesville","state":"Georgia","url":"/eclipse/in/usa/gainesville-ga","img_url":"//c.tadst.com/scripts/eclipsegfx.php?v=2&t=1&w=120&h=120&sr=0.263535&mr=0.271774&mx=0.000877&my=-0.012299&hz=64.454353","_geoloc":{"lat":34.2978794,"lng":-83.8240662}},{"name":"LaGrange","state":"Georgia","url":"/eclipse/in/usa/lagrange","img_url":"//c.tadst.com/scripts/eclipsegfx.php?v=2&t=1&w=120&h=120&sr=0.263535&mr=0.271835&mx=0.001735&my=-0.037228&hz=66.126132","_geoloc":{"lat":33.039291,"lng":-85.0313268}},{"name":"Lawrenceville","state":"Georgia","url":"/eclipse/in/usa/lawrenceville","img_url":"//c.tadst.com/scripts/eclipsegfx.php?v=2&t=1&w=120&h=120&sr=0.263535&mr=0.271786&mx=0.001187&my=-0.017868&hz=64.786138","_geoloc":{"lat":33.9562149,"lng":-83.9879624}},{"name":"Macon","state":"Georgia","url":"/eclipse/in/usa/macon","img_url":"//c.tadst.com/scripts/eclipsegfx.php?v=2&t=1&w=120&h=120&sr=0.263535&mr=0.271797&mx=0.003600&my=-0.030364&hz=65.216474","_geoloc":{"lat":32.8406946,"lng":-83.6324021}},{"name":"Perry","state":"Georgia","url":"/eclipse/in/usa/perry","img_url":"//c.tadst.com/scripts/eclipsegfx.php?v=2&t=1&w=120&h=120&sr=0.263535&mr=0.271807&mx=0.004439&my=-0.036149&hz=65.518160","_geoloc":{"lat":32.4586695,"lng":-83.7319657}},{"name":"Ringgold","state":"Georgia","url":"/eclipse/in/usa/ringgold","img_url":"//c.tadst.com/scripts/eclipsegfx.php?v=2&t=1&w=120&h=120&sr=0.263535&mr=0.271796&mx=0.000005&my=-0.012185&hz=64.864281","_geoloc":{"lat":34.91591,"lng":-85.1091172}},{"name":"Savannah","state":"Georgia","url":"/eclipse/in/usa/savannah","img_url":"//c.tadst.com/scripts/eclipsegfx.php?v=2&t=1&w=120&h=120&sr=0.263535&mr=0.271721&mx=0.005462&my=-0.022900&hz=63.452826","_geoloc":{"lat":32.0835407,"lng":-81.0998341}},{"name":"Toccoa","state":"Georgia","url":"/eclipse/in/usa/toccoa","img_url":"//c.tadst.com/scripts/eclipsegfx.php?v=2&t=1&w=120&h=120&sr=0.263535&mr=0.271753&mx=0.000422&my=-0.005264&hz=63.917893","_geoloc":{"lat":34.5774368,"lng":-83.3328809}},{"name":"Valdosta","state":"Georgia","url":"/eclipse/in/usa/valdosta","img_url":"//c.tadst.com/scripts/eclipsegfx.php?v=2&t=1&w=120&h=120&sr=0.263535&mr=0.271819&mx=0.010800&my=-0.054316&hz=66.016187","_geoloc":{"lat":30.8327022,"lng":-83.278485}},{"name":"Waycross","state":"Georgia","url":"/eclipse/in/usa/waycross","img_url":"//c.tadst.com/scripts/eclipsegfx.php?v=2&t=1&w=120&h=120&sr=0.263535&mr=0.271780&mx=0.009600&my=-0.042706&hz=64.999720","_geoloc":{"lat":31.2135511,"lng":-82.3540177}},{"name":"Winder","state":"Georgia","url":"/eclipse/in/usa/winder","img_url":"//c.tadst.com/scripts/eclipsegfx.php?v=2&t=1&w=120&h=120&sr=0.263535&mr=0.271777&mx=0.001241&my=-0.015606&hz=64.571636","_geoloc":{"lat":33.9926098,"lng":-83.7201709}},{"name":"Hilo","state":"Hawaii","url":"/eclipse/in/usa/hilo","img_url":"//c.tadst.com/scripts/eclipsegfx.php?v=2&t=1&w=120&h=120&sr=0.263&mr=0.252&su=0.674&sp=1.199&mx=-0.993&my=-1.037&hz=0.763","_geoloc":{"lat":19.707243,"lng":-155.0816349}},{"name":"Honolulu","state":"Hawaii","url":"/eclipse/in/usa/honolulu","img_url":"//c.tadst.com/scripts/eclipsegfx.php?v=2&t=1&w=120&h=120&sr=0.263&mr=0.252&su=0.674&sp=1.200&mx=-1.007&my=-0.934&hz=0.747","_geoloc":{"lat":21.304547,"lng":-157.8556763}},{"name":"Kailua-Kona","state":"Hawaii","url":"/eclipse/in/usa/kailua-kona","img_url":"//c.tadst.com/scripts/eclipsegfx.php?v=2&t=1&w=120&h=120&sr=0.263&mr=0.252&su=0.674&sp=1.200&mx=-0.986&my=-1.007&hz=0.759","_geoloc":{"lat":19.641941,"lng":-155.9969329}},{"name":"Kapolei","state":"Hawaii","url":"/eclipse/in/usa/kapolei","img_url":"//c.tadst.com/scripts/eclipsegfx.php?v=2&t=1&w=120&h=120&sr=0.263&mr=0.252&su=0.674&sp=1.200&mx=-1.006&my=-0.927&hz=0.745","_geoloc":{"lat":21.3339504,"lng":-158.0771852}},{"name":"Lihue","state":"Hawaii","url":"/eclipse/in/usa/lihue","img_url":"//c.tadst.com/scripts/eclipsegfx.php?v=2&t=1&w=120&h=120&sr=0.263&mr=0.252&su=0.674&sp=1.200&mx=-1.009&my=-0.880&hz=0.748","_geoloc":{"lat":21.981111,"lng":-159.3711109}},{"name":"Napili-Honokowai","state":"Hawaii","url":"/eclipse/in/usa/napili-honokowai","img_url":"//c.tadst.com/scripts/eclipsegfx.php?v=2&t=1&w=120&h=120&sr=0.263&mr=0.252&su=0.674&sp=1.200&mx=-1.008&my=-0.975&hz=0.751","_geoloc":{"lat":20.9717546,"lng":-156.6756045}},{"name":"Wailuku","state":"Hawaii","url":"/eclipse/in/usa/wailuku","img_url":"//c.tadst.com/scripts/eclipsegfx.php?v=2&t=1&w=120&h=120&sr=0.263&mr=0.252&su=0.674&sp=1.200&mx=-1.008&my=-0.981&hz=0.749","_geoloc":{"lat":20.887041,"lng":-156.5050509}},{"name":"Waipahu","state":"Hawaii","url":"/eclipse/in/usa/waipahu","img_url":"//c.tadst.com/scripts/eclipsegfx.php?v=2&t=1&w=120&h=120&sr=0.263&mr=0.252&su=0.674&sp=1.200&mx=-1.008&my=-0.929&hz=0.753","_geoloc":{"lat":21.3866667,"lng":-158.0091666}},{"name":"Boise","state":"Idaho","url":"/eclipse/in/usa/boise","img_url":"//c.tadst.com/scripts/eclipsegfx.php?v=2&t=1&w=120&h=120&sr=0.263530&mr=0.271072&mx=-0.008677&my=-0.006404&hz=46.723725","_geoloc":{"lat":43.61656,"lng":-116.2008349}},{"name":"Coeur d'Alene","state":"Idaho","url":"/eclipse/in/usa/coeur-d-alene","img_url":"//c.tadst.com/scripts/eclipsegfx.php?v=2&t=1&w=120&h=120&sr=0.263530&mr=0.270914&mx=0.038513&my=0.033066&hz=44.079567","_geoloc":{"lat":47.6776832,"lng":-116.7804663}},{"name":"Gooding","state":"Idaho","url":"/eclipse/in/usa/gooding","img_url":"//c.tadst.com/scripts/eclipsegfx.php?v=2&t=1&w=120&h=120&sr=0.263531&mr=0.271157&mx=-0.015217&my=-0.011001&hz=48.314673","_geoloc":{"lat":43.0031041,"lng":-114.8286923}},{"name":"Idaho Falls","state":"Idaho","url":"/eclipse/in/usa/idaho-falls","img_url":"//c.tadst.com/scripts/eclipsegfx.php?v=2&t=1&w=120&h=120&sr=0.263531&mr=0.271244&mx=-0.003673&my=-0.003010&hz=50.079889","_geoloc":{"lat":43.4935245,"lng":-112.0400918}},{"name":"Jerome","state":"Idaho","url":"/eclipse/in/usa/jerome","img_url":"//c.tadst.com/scripts/eclipsegfx.php?v=2&t=1&w=120&h=120&sr=0.263531&mr=0.271172&mx=-0.017675&my=-0.012784&hz=48.595576","_geoloc":{"lat":42.702266,"lng":-114.2867042}},{"name":"Lewiston","state":"Idaho","url":"/eclipse/in/usa/lewiston","img_url":"//c.tadst.com/scripts/eclipsegfx.php?v=2&t=1&w=120&h=120&sr=0.263530&mr=0.270948&mx=0.024269&my=0.019460&hz=44.614215","_geoloc":{"lat":46.4165506,"lng":-117.0176568}},{"name":"Moscow","state":"Idaho","url":"/eclipse/in/usa/moscow","img_url":"//c.tadst.com/scripts/eclipsegfx.php?v=2&t=1&w=120&h=120&sr=0.263530&mr=0.270937&mx=0.028054&my=0.022826&hz=44.435349","_geoloc":{"lat":46.7323875,"lng":-117.000165}},{"name":"Nampa","state":"Idaho","url":"/eclipse/in/usa/nampa","img_url":"//c.tadst.com/scripts/eclipsegfx.php?v=2&t=1&w=120&h=120&sr=0.263530&mr=0.271057&mx=-0.009683&my=-0.006953&hz=46.451988","_geoloc":{"lat":43.5737361,"lng":-116.5596312}},{"name":"Pocatello","state":"Idaho","url":"/eclipse/in/usa/pocatello","img_url":"//c.tadst.com/scripts/eclipsegfx.php?v=2&t=1&w=120&h=120&sr=0.263531&mr=0.271251&mx=-0.012214&my=-0.009474&hz=50.172709","_geoloc":{"lat":42.8688613,"lng":-112.4401097}},{"name":"Post Falls","state":"Idaho","url":"/eclipse/in/usa/post-falls","img_url":"//c.tadst.com/scripts/eclipsegfx.php?v=2&t=1&w=120&h=120&sr=0.263530&mr=0.270906&mx=0.038908&my=0.033214&hz=43.939014","_geoloc":{"lat":47.7110106,"lng":-116.9480876}},{"name":"Sandpoint","state":"Idaho","url":"/eclipse/in/usa/sandpoint","img_url":"//c.tadst.com/scripts/eclipsegfx.php?v=2&t=1&w=120&h=120&sr=0.263530&mr=0.270901&mx=0.045187&my=0.039715&hz=43.894165","_geoloc":{"lat":48.2765903,"lng":-116.5532475}},{"name":"Aurora","state":"Illinois","url":"/eclipse/in/usa/aurora-il","img_url":"//c.tadst.com/scripts/eclipsegfx.php?v=2&t=1&w=120&h=120&sr=0.263534&mr=0.271643&mx=0.015528&my=0.059363&hz=60.276574","_geoloc":{"lat":41.7605849,"lng":-88.3200714}},{"name":"Bloomington","state":"Illinois","url":"/eclipse/in/usa/bloomington","img_url":"//c.tadst.com/scripts/eclipsegfx.php?v=2&t=1&w=120&h=120&sr=0.263534&mr=0.271699&mx=0.010608&my=0.039092&hz=61.624042","_geoloc":{"lat":40.4731073,"lng":-88.9941402}},{"name":"Carbondale","state":"Illinois","url":"/eclipse/in/usa/carbondale","img_url":"//c.tadst.com/scripts/eclipsegfx.php?v=2&t=1&w=120&h=120&sr=0.263534&mr=0.271797&mx=0.000301&my=0.001289&hz=64.269445","_geoloc":{"lat":37.7274692,"lng":-89.2166549}},{"name":"Champaign","state":"Illinois","url":"/eclipse/in/usa/champaign","img_url":"//c.tadst.com/scripts/eclipsegfx.php?v=2&t=1&w=120&h=120&sr=0.263534&mr=0.271702&mx=0.009092&my=0.038590&hz=61.798264","_geoloc":{"lat":40.1164205,"lng":-88.2433828}},{"name":"Chicago","state":"Illinois","url":"/eclipse/in/usa/chicago","img_url":"//c.tadst.com/scripts/eclipsegfx.php?v=2&t=1&w=120&h=120&sr=0.263534&mr=0.271630&mx=0.015196&my=0.064850&hz=60.007465","_geoloc":{"lat":41.8755546,"lng":-87.6244211}},{"name":"Decatur","state":"Illinois","url":"/eclipse/in/usa/decatur","img_url":"//c.tadst.com/scripts/eclipsegfx.php?v=2&t=1&w=120&h=120&sr=0.263534&mr=0.271721&mx=0.008198&my=0.030986&hz=62.218106","_geoloc":{"lat":39.8454163,"lng":-88.952415}},{"name":"Effingham","state":"Illinois","url":"/eclipse/in/usa/effingham","img_url":"//c.tadst.com/scripts/eclipsegfx.php?v=2&t=1&w=120&h=120&sr=0.263534&mr=0.271741&mx=0.005750&my=0.023766&hz=62.798272","_geoloc":{"lat":39.1201433,"lng":-88.5434799}},{"name":"Evanston","state":"Illinois","url":"/eclipse/in/usa/evanston","img_url":"//c.tadst.com/scripts/eclipsegfx.php?v=2&t=1&w=120&h=120&sr=0.263534&mr=0.271624&mx=0.015993&my=0.066613&hz=59.867488","_geoloc":{"lat":42.0447388,"lng":-87.6930458}},{"name":"Mount Carmel","state":"Illinois","url":"/eclipse/in/usa/mount-carmel","img_url":"//c.tadst.com/scripts/eclipsegfx.php?v=2&t=1&w=120&h=120&sr=0.263534&mr=0.271753&mx=0.003736&my=0.018835&hz=63.220380","_geoloc":{"lat":38.4108801,"lng":-87.7614173}},{"name":"Orland Park","state":"Illinois","url":"/eclipse/in/usa/orland-park","img_url":"//c.tadst.com/scripts/eclipsegfx.php?v=2&t=1&w=120&h=120&sr=0.263534&mr=0.271642&mx=0.014414&my=0.060383&hz=60.294630","_geoloc":{"lat":41.6303103,"lng":-87.8539424}},{"name":"Peoria","state":"Illinois","url":"/eclipse/in/usa/peoria","img_url":"//c.tadst.com/scripts/eclipsegfx.php?v=2&t=1&w=120&h=120&sr=0.263534&mr=0.271698&mx=0.011603&my=0.038538&hz=61.526063","_geoloc":{"lat":40.6938609,"lng":-89.5891007}},{"name":"Plainfield","state":"Illinois","url":"/eclipse/in/usa/plainfield","img_url":"//c.tadst.com/scripts/eclipsegfx.php?v=2&t=1&w=120&h=120&sr=0.263534&mr=0.271647&mx=0.014887&my=0.058340&hz=60.374608","_geoloc":{"lat":41.623191,"lng":-88.2284325}},{"name":"Quincy","state":"Illinois","url":"/eclipse/in/usa/quincy","img_url":"//c.tadst.com/scripts/eclipsegfx.php?v=2&t=1&w=120&h=120&sr=0.263534&mr=0.271741&mx=0.007111&my=0.018876&hz=62.469750","_geoloc":{"lat":39.9356016,"lng":-91.4098726}},{"name":"Rockford","state":"Illinois","url":"/eclipse/in/usa/rockford","img_url":"//c.tadst.com/scripts/eclipsegfx.php?v=2&t=1&w=120&h=120&sr=0.263534&mr=0.271632&mx=0.018105&my=0.061587&hz=59.929891","_geoloc":{"lat":42.2713945,"lng":-89.0939659}},{"name":"Springfield","state":"Illinois","url":"/eclipse/in/usa/springfield-il","img_url":"//c.tadst.com/scripts/eclipsegfx.php?v=2&t=1&w=120&h=120&sr=0.263534&mr=0.271731&mx=0.007833&my=0.026560&hz=62.393760","_geoloc":{"lat":39.7989763,"lng":-89.6443687}},{"name":"Time","state":"Illinois","url":"/eclipse/in/usa/time","img_url":"//c.tadst.com/scripts/eclipsegfx.php?v=2&t=1&w=120&h=120&sr=0.263534&mr=0.271750&mx=0.006028&my=0.017588&hz=62.776993","_geoloc":{"lat":39.5614368,"lng":-90.7242937}},{"name":"Urbana","state":"Illinois","url":"/eclipse/in/usa/urbana","img_url":"//c.tadst.com/scripts/eclipsegfx.php?v=2&t=1&w=120&h=120&sr=0.263534&mr=0.271702&mx=0.009294&my=0.038607&hz=61.797426","_geoloc":{"lat":40.1117174,"lng":-88.2073009}},{"name":"Wheaton","state":"Illinois","url":"/eclipse/in/usa/wheaton","img_url":"//c.tadst.com/scripts/eclipsegfx.php?v=2&t=1&w=120&h=120&sr=0.263534&mr=0.271637&mx=0.015664&my=0.061908&hz=60.133324","_geoloc":{"lat":41.8646959,"lng":-88.1101708}},{"name":"Bloomington","state":"Indiana","url":"/eclipse/in/usa/bloomington-in","img_url":"//c.tadst.com/scripts/eclipsegfx.php?v=2&t=1&w=120&h=120&sr=0.263534&mr=0.271707&mx=0.005531&my=0.035995&hz=62.127845","_geoloc":{"lat":39.1670396,"lng":-86.534288}},{"name":"Elkhart","state":"Indiana","url":"/eclipse/in/usa/elkhart","img_url":"//c.tadst.com/scripts/eclipsegfx.php?v=2&t=1&w=120&h=120&sr=0.263534&mr=0.271611&mx=0.012572&my=0.071756&hz=59.719150","_geoloc":{"lat":41.6819935,"lng":-85.976667}},{"name":"Evansville","state":"Indiana","url":"/eclipse/in/usa/evansville","img_url":"//c.tadst.com/scripts/eclipsegfx.php?v=2&t=1&w=120&h=120&sr=0.263534&mr=0.271763&mx=0.002620&my=0.014205&hz=63.540696","_geoloc":{"lat":37.9747645,"lng":-87.5558482}},{"name":"Fort Wayne","state":"Indiana","url":"/eclipse/in/usa/fort-wayne","img_url":"//c.tadst.com/scripts/eclipsegfx.php?v=2&t=1&w=120&h=120&sr=0.263534&mr=0.271616&mx=0.009288&my=0.068940&hz=59.947024","_geoloc":{"lat":41.0799898,"lng":-85.1386014}},